,id_acidente,latitude,longitude,endereco1,endereco2,data,cod_acid,tipo_acid,feridas,mortas,automovel,caminhonete,carreta,jipe,bicicleta,moto,moto_taxi,micro_onibus,onibus,onibus_urbano,onibus_fretado,caminhao,van,vuc,outros,carroca,sem_informacao
22612,D021700001,-23.57098,-46.7111,AV VITAL BRASIL,nan,2017-02-04 13:40:00,4,nan,1,0,0,0,0,0,0,1,0,0,0,0,0,0,0,0,0,0,0
22613,D021700002,-23.45784,-46.59617,RUA MARIA AMALIA LOPES AZEVEDO,nan,2017-02-04 02:25:00,2,nan,1,0,1,0,0,0,0,0,0,0,0,0,0,0,0,0,0,0,0
22614,D021700003,-23.605970000000003,-46.66905,AV PAVAO,nan,2017-02-06 16:07:00,4,nan,1,0,0,1,0,0,0,0,0,0,0,0,0,0,0,0,0,0,0
22615,D021700004,-23.67269,-46.71217,AV ATLANTICA ANT. ROBERT KENNEDY,RUA DOS INOCENTES,2017-02-03 10:30:00,4,nan,1,0,0,0,0,0,0,0,0,0,1,0,0,0,0,0,0,0,0
22616,D021700005,-23.580470000000002,-46.50465,AV PAST CICERO CANUTO DE LIMA,nan,2017-02-16 19:14:00,2,nan,1,0,1,0,0,0,0,0,0,0,0,0,0,1,0,0,0,0,0
22617,D021700006,-23.51237,-46.388870000000004,RUA MAGNOLIA AZUL,nan,2017-02-13 17:19:00,4,nan,1,0,1,0,0,0,0,0,0,0,0,0,0,0,0,0,0,0,0
22618,D021700007,-23.74389,-46.66515,RUA FRANCISCO INACIO SOLANO,nan,2017-02-03 18:30:00,4,nan,1,0,1,0,0,0,0,0,0,0,0,0,0,0,0,0,0,0,0
22619,D021700008,-23.539070000000002,-46.754290000000005,AV PRES ALTINO,AV ENG ALEXANDRE MACKENZIE,2017-02-23 14:10:00,2,nan,1,0,2,0,0,0,0,0,0,0,0,0,0,0,0,0,0,0,0
22620,D021700009,-23.50829,-46.54237,RUA DR ASSIS RIBEIRO,nan,2017-02-01 13:32:00,4,nan,1,0,0,1,0,0,0,0,0,0,0,0,0,0,0,0,0,0,0
22621,D021700010,-23.466910000000002,-46.63213,AV STA INES,nan,2017-02-19 05:50:00,2,nan,1,0,1,0,0,0,0,0,0,0,1,0,0,0,0,0,0,0,0
22622,D021700011,-23.54488,-46.63105,VIADUTO DIARIO POPULAR,nan,2017-02-10 18:00:00,2,nan,10,0,0,0,0,0,0,0,0,0,2,0,0,0,0,0,0,0,0
22623,D021700012,-23.44576,-46.704390000000004,AV DEP CANTIDIO SAMPAIO,nan,2017-02-02 05:20:00,2,nan,4,0,1,0,0,0,0,0,0,0,0,0,0,1,0,0,0,0,0
22624,D021700013,-23.5054,-46.38868,RUA ITAJUIBE,nan,2017-02-12 19:00:00,2,nan,1,0,1,0,0,0,0,1,0,0,0,0,0,0,0,0,0,0,0
22625,D021700014,-23.48551,-46.72357,AV RAIMUNDO PEREIRA DE MAGAL.,nan,2017-02-05 05:00:00,2,nan,2,0,1,0,0,0,0,0,0,0,0,0,0,0,0,0,0,0,0
22626,D021700015,-23.60752,-46.653459999999995,AV INDIANOPOLIS,nan,2017-02-12 23:00:00,2,nan,1,0,1,0,0,0,0,0,0,0,0,0,0,0,0,0,0,0,0
22627,D021700016,-23.55617,-46.53351,RUA TAUBATE,RUA XIRIRICA,2017-02-17 20:13:00,2,nan,4,0,2,0,0,0,0,0,0,0,1,0,0,0,0,0,0,0,0
22628,D021700017,-23.652620000000002,-46.66312,AV JOAO BARRETO DE MENEZES,nan,2017-02-06 08:45:00,4,nan,1,0,1,0,0,0,0,0,0,0,0,0,0,0,0,0,0,0,0
22629,D021700018,-23.421310000000002,-46.79473,VIA ANHANGUERA,nan,2017-02-24 07:40:00,2,nan,2,0,1,0,0,0,0,1,0,0,0,0,0,0,0,0,0,0,0
22630,D021700019,-23.81154,-46.66489,AV PAULO GUILGUER REIMBERG,nan,2017-02-15 14:30:00,2,nan,1,0,0,0,0,0,0,0,0,0,1,0,0,0,0,0,0,0,0
22631,D021700020,-23.64864,-46.6621,AV STA CATARINA,nan,2017-02-05 13:17:00,4,nan,1,0,1,0,0,0,0,0,0,0,0,0,0,0,0,0,0,0,0
22632,D021700021,-23.63733,-46.59373,VIA ANCHIETA,RUA EPIACABA,2017-02-05 20:30:00,2,nan,6,0,1,0,0,0,0,0,0,0,0,0,0,0,0,0,0,0,1
22633,D021700022,-23.61788,-46.67549,AV VER JOSE DINIZ,RUA PASCAL,2017-02-11 09:06:00,4,nan,1,0,0,0,0,0,0,1,0,0,0,0,0,0,0,0,0,0,0
22634,D021700023,-23.47188,-46.69325,RUA MAEST ERLON CHAVES,nan,2017-02-01 13:00:00,4,nan,1,0,1,0,0,0,0,0,0,0,0,0,0,0,0,0,0,0,0
22635,D021700024,-23.5034,-46.3971,RUA TIBURCIO DE SOUSA,nan,2017-02-21 17:00:00,2,nan,2,0,0,0,0,0,1,1,0,0,0,0,0,0,0,0,0,0,0
22636,D021700025,-23.50596,-46.52961,RUA MIGUEL GARCIA,AV CANGAIBA,2017-02-08 00:54:00,2,nan,1,0,1,0,0,0,0,1,0,0,0,0,0,0,0,0,0,0,0
22637,D021700026,-23.637829999999997,-46.60502,RUA FRANCISCO PESTANA,nan,2017-02-13 02:30:00,2,nan,1,0,1,0,0,0,0,1,0,0,0,0,0,0,0,0,0,0,0
22638,D021700027,-23.49616,-46.72195,RUA CHARLES SILVER,nan,2017-02-17 09:00:00,2,nan,1,0,0,0,0,0,0,1,0,0,0,0,0,0,0,0,0,0,0
22639,D021700028,-23.5858,-46.589259999999996,AV PROF LUIZ IGNACIO ANHAIA MELLO,RUA DIANOPOLIS,2017-02-28 16:16:00,2,nan,1,0,0,0,0,0,0,1,0,0,1,0,0,0,0,0,0,0,0
22640,D021700029,-23.64904,-46.7493,ESTRADA DE ITAPECERICA,nan,2017-02-04 18:20:00,4,nan,1,0,0,0,0,0,0,1,0,0,0,0,0,0,0,0,0,0,0
22641,D021700030,-23.49354,-46.41476,AV ESTRELA DA NOITE,nan,2017-02-02 21:33:00,2,nan,1,0,1,0,0,0,0,1,0,0,0,0,0,0,0,0,0,0,0
22642,D021700031,-23.553810000000002,-46.39411,RUA RAPOSO DA FONSECA,nan,2017-02-01 15:15:00,2,nan,1,0,0,0,0,0,0,0,0,0,0,0,0,1,0,0,0,0,0
22643,D021700032,-23.56847,-46.58217,AV DR JOSE HIGINO,nan,2017-02-12 00:23:00,2,nan,1,0,1,0,0,0,0,1,0,0,0,0,0,0,0,0,0,0,0
22644,D021700033,-23.60126,-46.52451,AV PROF LUIZ IGNACIO ANHAIA MELLO,nan,2017-02-03 01:00:00,2,nan,1,2,2,0,0,0,0,0,0,0,0,0,0,0,0,0,0,0,0
22645,D021700034,-23.49541,-46.6769,AV DEP EMILIO CARLOS,nan,2017-02-09 06:02:00,2,nan,1,0,1,0,0,0,0,1,0,0,0,0,0,0,0,0,0,0,0
22646,D021700035,-23.59396,-46.554840000000006,RUA JOSE MACEDO,nan,2017-02-19 01:00:00,2,nan,2,0,1,0,0,0,0,0,0,0,0,0,0,0,0,0,0,0,0
22647,D021700036,-23.5717,-46.64767,RUA TEIXEIRA DA SILVA,nan,2017-02-23 07:13:00,2,nan,1,0,1,0,0,0,0,1,0,0,0,0,0,0,0,0,0,0,0
22648,D021700037,-23.585520000000002,-46.505,AV ARRAIAS DO ARAGUAIA,nan,2017-02-25 10:00:00,2,nan,1,0,0,0,0,0,0,1,0,0,0,0,0,0,0,0,0,0,0
22649,D021700038,-23.54007,-46.6426,RUA VITORIA,nan,2017-02-19 18:10:00,4,nan,2,0,0,0,0,0,0,1,0,0,0,0,0,0,0,0,0,0,0
22650,D021700039,-23.58665,-46.74868,VIA RAPOSO TAVARES,nan,2017-02-10 15:30:00,2,nan,1,0,1,0,0,0,0,1,0,0,0,0,0,0,0,0,0,0,0
22651,D021700040,-23.45535,-46.58379,RUA ARI DA ROCHA MIRANDA,nan,2017-02-11 23:53:00,4,nan,2,0,1,0,0,0,0,0,0,0,0,0,0,0,0,0,0,0,0
22652,D021700041,-23.48624,-46.483999999999995,RUA DR ASSIS RIBEIRO,nan,2017-02-18 01:00:00,2,nan,1,0,1,0,0,0,0,0,0,0,0,0,0,1,0,0,0,0,2
22653,D021700042,-23.594160000000002,-46.7352,AV PROF FRANCISCO MORATO,nan,2017-02-28 13:00:00,2,nan,1,0,1,0,0,0,0,0,0,0,0,0,0,0,0,0,0,0,0
22654,D021700043,-23.54391,-46.644940000000005,RUA MARQ DE ITU,nan,2017-02-13 08:00:00,4,nan,1,0,1,0,0,0,0,0,0,0,0,0,0,0,0,0,0,0,0
22655,D021700044,-23.478460000000002,-46.58305,AV JARDIM JAPAO,AV JULIO BUONO,2017-02-25 01:28:00,2,nan,1,0,0,1,0,0,0,1,0,0,0,0,0,0,0,0,0,0,0
22656,D021700045,-23.678179999999998,-46.71305,AV ATLANTICA ANT. ROBERT KENNEDY,nan,2017-02-18 01:00:00,2,nan,1,0,0,0,0,0,0,1,0,0,0,0,0,0,0,0,0,0,1
22657,D021700046,-23.55324,-46.57833,AV ALVARO RAMOS,nan,2017-02-24 19:16:00,4,nan,1,0,0,0,0,0,0,1,0,0,0,0,0,0,0,0,0,0,0
22658,D021700047,-23.580470000000002,-46.706140000000005,RUA ALVARENGA,nan,2017-02-19 13:38:00,2,nan,1,0,1,0,0,0,0,1,0,0,0,0,0,0,0,0,0,0,0
22659,D021700048,-23.65705,-46.635690000000004,AV ENG ARMANDO DE ARRUDA PEREIRA,nan,2017-02-04 02:37:00,2,nan,1,0,1,0,0,0,0,1,0,0,0,0,0,0,0,0,0,0,0
22660,D021700049,-23.52734,-46.705729999999996,RUA LUIS MARTINS,nan,2017-02-28 21:20:00,4,nan,1,0,0,0,0,0,0,1,0,0,0,0,0,0,0,0,0,0,0
22661,D021700050,-23.50045,-46.52809,RUA DR ASSIS RIBEIRO,nan,2017-02-09 13:55:00,2,nan,0,1,0,0,0,0,0,1,0,0,0,0,0,0,0,0,0,0,0
22662,D021700051,-23.744320000000002,-46.67057,ESTRADA DO CANAL DA COCAIA,nan,2017-02-21 07:00:00,2,nan,1,0,2,0,0,0,0,0,0,0,0,0,0,0,0,0,0,0,0
22663,D021700052,-23.55313,-46.6429,RUA S DOMINGOS,nan,2017-02-21 17:27:00,2,nan,1,0,0,1,0,0,0,1,0,0,0,0,0,0,0,0,0,0,0
22664,D021700053,-23.57544,-46.64167,VIADUTO STA GENEROSA,nan,2017-02-07 16:13:00,4,nan,0,1,0,0,0,0,0,0,0,0,1,0,0,0,0,0,0,0,0
22665,D021700054,-23.56973,-46.4592,RUA JOHN SPEERS,nan,2017-02-04 16:30:00,2,nan,3,0,3,0,0,0,0,0,0,0,0,0,0,0,0,0,0,0,0
22666,D021700055,-23.50756,-46.689890000000005,AV OTAVIANO ALVES DE LIMA,nan,2017-02-12 04:15:00,2,nan,1,0,1,0,0,0,0,0,0,0,0,0,0,0,0,0,0,0,0
22667,D021700056,-23.66982,-46.73464,AV GUARAPIRANGA,nan,2017-02-12 06:03:00,2,nan,2,0,2,0,0,0,0,0,0,0,0,0,0,0,0,0,0,0,0
22668,D021700057,-23.63058,-46.4474,RUA BENTO PIRES RIBEIRO,nan,2017-02-12 07:38:00,2,nan,2,0,1,0,0,0,0,1,0,0,0,0,0,0,0,0,0,0,0
22669,D021700058,-23.62658,-46.5958,ESTRADA S JOAO CLIMACO,nan,2017-02-24 12:35:00,2,nan,1,0,1,0,0,0,0,1,0,0,0,0,0,0,0,0,0,0,0
22670,D021700059,-23.595979999999997,-46.68672,RUA OLIMPIADAS,nan,2017-02-02 17:15:00,4,nan,1,0,1,0,0,0,0,0,0,0,0,0,0,0,0,0,0,0,0
22671,D021700060,-23.59254,-46.6953,AV DAS MAGNOLIAS,nan,2017-02-04 20:09:00,2,nan,1,0,2,0,0,0,0,0,0,0,0,0,0,0,0,0,0,0,0
22672,D021700061,-23.75463,-46.67188,AV DONA BELMIRA MARIN,nan,2017-02-12 03:16:00,2,nan,2,0,2,0,0,0,0,0,0,0,0,0,0,0,0,0,0,0,0
22673,D021700062,-23.54557,-46.5958,AV ALCANTARA MACHADO,nan,2017-02-13 02:50:00,2,nan,1,0,3,0,0,0,0,0,0,0,0,0,0,0,0,0,0,0,0
22674,D021700063,-23.51444,-46.69855,PRACA JACOMO ZANELA,nan,2017-02-19 01:50:00,4,nan,1,0,0,0,0,0,0,0,0,0,1,0,0,0,0,0,0,0,0
22675,D021700064,-23.57451,-46.7261,RUA AUGUSTO PERRONI,nan,2017-02-18 17:30:00,2,nan,2,0,1,0,0,0,0,1,0,0,0,0,0,0,0,0,0,0,0
22676,D021700065,-23.4979,-46.66409,AV ENG CAETANO ALVARES,nan,2017-02-19 10:00:00,2,nan,1,0,0,0,0,0,1,0,0,0,1,0,0,0,0,0,0,0,0
22677,D021700066,-23.6726,-46.6781,AV INTERLAGOS,nan,2017-02-14 23:48:00,4,nan,2,0,0,0,0,0,0,1,0,0,0,0,0,0,0,0,0,0,0
22678,D021700067,-23.51817,-46.63008,PONTE DAS BANDEIRAS,nan,2017-02-08 12:50:00,2,nan,1,0,0,0,0,0,0,1,0,0,0,0,0,0,0,0,0,0,0
22679,D021700068,-23.62189,-46.50595,RUA SOFIA CASTELANE,nan,2017-02-08 19:18:00,2,nan,1,0,1,0,0,0,1,0,0,0,0,0,0,0,0,0,0,0,0
22680,D021700069,-23.47653,-46.62771,AV ENG CAETANO ALVARES,nan,2017-02-05 17:21:00,2,nan,1,0,1,0,0,0,1,0,0,0,0,0,0,0,0,0,0,0,0
22681,D021700070,-23.53225,-46.534209999999995,AV CD DE FRONTIN,nan,2017-02-22 14:30:00,2,nan,1,0,1,0,0,0,0,1,0,0,0,0,0,0,0,0,0,0,0
22682,D021700071,-23.612029999999997,-46.46379,RUA SOL,RUA NEBULOSAS,2017-02-10 11:00:00,4,nan,0,1,0,0,0,0,0,1,0,0,0,0,0,0,0,0,0,0,0
22683,D021700072,-23.61494,-46.66831,ALAMEDA DOS MARACATINS,AV DOS BANDEIRANTES,2017-02-18 14:15:00,2,nan,2,0,0,0,0,0,0,2,0,0,0,0,0,0,0,0,0,0,0
22684,D021700073,-23.51251,-46.42037,AV FLAMINGO,nan,2017-02-04 09:15:00,4,nan,1,0,1,0,0,0,0,0,0,0,0,0,0,0,0,0,0,0,0
22685,D021700074,-23.614420000000003,-46.6989,AV DAS NACOES UNIDAS,nan,2017-02-13 08:30:00,2,nan,2,0,2,0,0,0,0,2,0,0,0,0,0,0,0,0,0,0,0
22686,D021700075,-23.72521,-46.69412,RUA PROF ROLDAO DE BARROS,nan,2017-02-05 20:30:00,2,nan,1,0,1,0,0,0,0,1,0,0,0,0,0,0,0,0,0,0,0
22687,D021700076,-23.556929999999998,-46.63971,AV BRIG LUIS ANTONIO,nan,2017-02-07 22:00:00,2,nan,1,0,1,0,0,0,0,1,0,0,0,0,0,0,0,0,0,0,0
22688,D021700077,-23.57381,-46.63244,AV ARMANDO FERRENTINI,RUA CASTRO ALVES,2017-02-17 11:40:00,2,nan,1,0,0,1,0,0,0,1,0,0,0,0,0,0,0,0,0,0,0
22689,D021700078,-23.41989,-46.73,AV RAIMUNDO PEREIRA DE MAGAL.,nan,2017-02-22 17:20:00,2,nan,1,0,0,0,0,0,0,1,0,0,0,0,0,0,0,0,0,0,0
22690,D021700079,-23.546429999999997,-46.55369,RUA AZEVEDO SOARES,nan,2017-02-07 11:00:00,2,nan,1,0,0,0,0,0,0,1,0,0,0,0,0,0,0,0,0,0,0
22691,D021700080,-23.523329999999998,-46.70443,RUA NSRA DA LAPA,RUA FAUSTOLO,2017-02-21 09:55:00,4,nan,1,0,1,0,0,0,0,0,0,0,0,0,0,0,0,0,0,0,0
22692,D021700081,-23.54185,-46.49876,AV DR PEREIRA VERGUEIRO,nan,2017-02-01 20:30:00,2,nan,1,0,0,1,0,0,0,1,0,0,0,0,0,0,0,0,0,0,0
22693,D021700082,-23.67354,-46.78841,ESTRADA DE ITAPECERICA,nan,2017-02-16 11:40:00,2,nan,2,0,1,0,0,0,0,1,0,0,0,0,0,0,0,0,0,0,0
22694,D021700083,-23.494889999999998,-46.42475,AV MAL TITO,nan,2017-02-01 19:55:00,2,nan,2,0,1,0,0,0,0,0,0,0,1,0,0,0,0,0,0,0,0
22695,D021700084,-23.6077,-46.55872,RUA PDE RAIMUNDO DA SILVA,RUA LUIS ALARDO DE MENEZES,2017-02-09 21:41:00,2,nan,1,0,1,0,0,0,1,0,0,0,0,0,0,0,0,0,0,0,0
22696,D021700085,-23.61376,-46.698,AV JORN ROBERTO MARINHO,nan,2017-02-18 06:52:00,2,nan,1,0,0,0,0,0,0,1,0,0,0,0,0,0,0,0,0,0,0
22697,D021700086,-23.57432,-46.53474,AV ANTONIO MANOGRASSO,AV MONTEMAGNO,2017-02-10 22:30:00,2,nan,1,0,1,0,0,0,0,1,0,0,0,0,0,0,0,0,0,0,0
22698,D021700087,-23.49001,-46.60833,AV GAL ATALIBA LEONEL,nan,2017-02-15 16:15:00,4,nan,1,0,0,0,0,0,0,1,0,0,0,0,0,0,0,0,0,0,0
22699,D021700088,-23.50771,-46.4918,RUA ROSA MENDES,nan,2017-02-13 06:20:00,2,nan,2,0,2,0,0,0,0,0,0,0,0,0,0,0,0,0,0,0,0
22700,D021700089,-23.60506,-46.62688,AV PROF ABRAAO DE MORAIS,nan,2017-02-24 11:15:00,2,nan,1,0,1,0,0,0,0,1,0,0,0,0,0,0,0,0,0,0,0
22701,D021700090,-23.53268,-46.52706,RUA JOAQUIM MARRA,nan,2017-02-01 11:30:00,2,nan,1,0,1,0,0,0,0,0,0,0,0,0,0,1,0,0,0,0,0
22702,D021700091,-23.60588,-46.628859999999996,RUA GUIRATINGA,nan,2017-02-23 13:00:00,4,nan,1,0,1,0,0,0,0,0,0,0,0,0,0,0,0,0,0,0,0
22703,D021700092,-23.53633,-46.560790000000004,RUA MELO PEIXOTO,nan,2017-02-20 14:30:00,2,nan,1,0,0,1,0,0,0,1,0,0,0,0,0,0,0,0,0,0,0
22704,D021700093,-23.46477,-46.75629,ALAMEDA AGENOR COUTO MAGALHAES,nan,2017-02-13 13:30:00,2,nan,1,0,1,0,0,0,0,1,0,0,0,0,0,0,0,0,0,0,0
22705,D021700094,-23.59689,-46.61667,RUA VERGUEIRO,nan,2017-02-25 14:53:00,2,nan,3,0,2,0,0,0,0,0,0,0,0,0,0,0,0,0,0,0,0
22706,D021700095,-23.51752,-46.45508,AV JACU-PESSEGO/NOVA TRABALHADORE,nan,2017-02-21 10:50:00,2,nan,1,0,0,0,0,0,0,1,0,0,0,0,0,0,0,0,0,0,0
22707,D021700096,-23.54411,-46.6871,RUA CAIOVAA,nan,2017-02-17 08:30:00,2,nan,1,0,0,0,0,0,0,1,0,0,0,0,0,0,0,0,0,0,0
22708,D021700097,-23.6047,-46.59665,AV ALM DELAMARE,nan,2017-02-18 21:22:00,2,nan,1,0,1,0,0,0,0,1,0,0,0,0,0,0,0,0,0,0,0
22709,D021700098,-23.544,-46.6765,AV SUMARE,nan,2017-02-22 20:30:00,4,nan,1,0,0,0,0,0,0,1,0,0,0,0,0,0,0,0,0,0,0
22710,D021700099,-23.60277,-46.636790000000005,RUA DOMINGOS DE MORAIS,AV DR ALTINO ARANTES,2017-02-06 22:57:00,2,nan,1,0,1,0,0,0,0,1,0,0,0,0,0,0,0,0,0,0,0
22711,D021700100,-23.50104,-46.65481,RUA AGUAS VIRTUOSAS,RUA FRANCISCO DIOGO,2017-02-18 13:40:00,2,nan,1,0,1,1,0,0,0,0,0,0,0,0,0,0,0,0,0,0,0
22712,D021700101,-23.55217,-46.73362,AV ESCOLA POLITECNICA,nan,2017-02-16 06:20:00,4,nan,1,0,1,0,0,0,0,0,0,0,0,0,0,0,0,0,0,0,0
22713,D021700102,-23.56995,-46.75438,AV JOSE JOAQUIM SEABRA,nan,2017-02-23 14:20:00,2,nan,1,0,0,0,0,0,0,1,0,0,0,0,0,0,0,0,0,0,0
22714,D021700103,-23.55164,-46.55607,RUA AGUAPEI,nan,2017-02-07 09:13:00,2,nan,1,0,0,1,0,0,0,1,0,0,0,0,0,0,0,0,0,0,0
22715,D021700104,-23.70518,-46.70239,PRACA MOSCOU,AV INTERLAGOS,2017-02-02 09:20:00,2,nan,1,0,0,1,0,0,0,1,0,0,0,0,0,0,0,0,0,0,0
22716,D021700105,-23.49918,-46.6133,AV LUIZ DUMONT VILLARES,nan,2017-02-25 17:30:00,2,nan,1,0,1,0,0,0,1,0,0,0,0,0,0,0,0,0,0,0,0
22717,D021700106,-23.48837,-46.582879999999996,AV NSRA DO LORETO,nan,2017-02-13 10:00:00,4,nan,1,0,0,0,0,0,0,0,0,0,0,0,0,0,0,0,0,0,1
22718,D021700107,-23.65395,-46.61076,AV DOS OURIVES,nan,2017-02-12 08:57:00,4,nan,1,0,1,0,0,0,0,0,0,0,0,0,0,0,0,0,0,0,0
22719,D021700108,-23.636999999999997,-46.64161,AV ENG ARMANDO DE ARRUDA PEREIRA,nan,2017-02-01 16:40:00,4,nan,2,0,0,0,0,0,0,1,0,0,0,0,0,0,0,0,0,0,0
22720,D021700109,-23.528979999999997,-46.457840000000004,RUA ADELINO,AV JACU-PESSEGO/NOVA TRABALHADORE,2017-02-24 12:22:00,2,nan,2,0,0,1,0,0,0,1,0,0,0,0,0,0,0,0,0,0,0
22721,D021700110,-23.68564,-46.800979999999996,ESTRADA DE ITAPECERICA,nan,2017-02-20 14:30:00,2,nan,1,0,1,1,0,0,0,0,0,0,0,0,0,0,0,0,0,0,0
22722,D021700111,-23.55095,-46.396440000000005,ESTRADA DE POA,nan,2017-02-05 06:40:00,2,nan,1,0,0,0,0,0,0,1,0,0,0,0,0,0,0,0,0,0,0
22723,D021700112,-23.44023,-46.73687,RUA AMARAVATI,nan,2017-02-18 14:00:00,2,nan,1,0,2,0,0,0,0,1,0,0,0,0,0,0,0,0,0,0,0
22724,D021700113,-23.49299,-46.688190000000006,RUA MANUEL CORREIA,nan,2017-02-28 16:20:00,4,nan,1,0,1,0,0,0,0,0,0,0,0,0,0,0,0,0,0,0,0
22725,D021700114,-23.595579999999998,-46.43419,AV RAGUEB CHOHFI,nan,2017-02-16 06:35:00,2,nan,1,0,1,0,0,0,0,1,0,0,0,0,0,0,0,0,0,0,0
22726,D021700115,-23.497529999999998,-46.66665,RUA CAROLINA SOARES,nan,2017-02-14 21:21:00,2,nan,1,0,1,0,0,0,0,1,0,0,0,0,0,0,0,0,0,0,0
22727,D021700116,-23.59296,-46.54702,RUA DO ARQUIPELAGO,nan,2017-02-23 18:47:00,4,nan,1,0,1,0,0,0,0,0,0,0,0,0,0,0,0,0,0,0,0
22728,D021700117,-23.491020000000002,-46.599070000000005,RUA CRUZ DE MALTA,RUA FRANCISCO LIPI,2017-02-07 17:40:00,2,nan,1,0,0,0,0,0,0,1,0,0,0,0,0,0,0,0,0,0,0
22729,D021700118,-23.63997,-46.65229,RUA ALBA,nan,2017-02-19 04:30:00,2,nan,1,0,0,1,0,0,0,1,0,0,0,0,0,0,0,0,0,0,0
22730,D021700119,-23.52378,-46.59321,AV GUILHERME COTCHING,nan,2017-02-04 20:16:00,2,nan,1,0,2,0,0,0,0,0,0,0,0,0,0,0,0,0,0,0,0
22731,D021700120,-23.58505,-46.57864,AV PROF LUIZ IGNACIO ANHAIA MELLO,nan,2017-02-02 17:00:00,2,nan,2,0,1,0,0,0,0,1,0,0,0,0,0,0,0,0,0,0,0
22732,D021700121,-23.46026,-46.5724,RUA IGARITE,nan,2017-02-11 15:50:00,4,nan,3,0,1,0,0,0,0,0,0,0,0,0,0,0,0,0,0,0,0
22733,D021700122,-23.58168,-46.498870000000004,AV RIO DAS PEDRAS,nan,2017-02-28 22:30:00,2,nan,1,0,1,1,0,0,0,0,0,0,0,0,0,0,0,0,0,0,0
22734,D021700123,-23.48547,-46.65209,AV DIREITOS HUMANOS,nan,2017-02-18 09:58:00,2,nan,1,0,1,0,0,0,0,1,0,0,0,0,0,0,0,0,0,0,0
22735,D021700124,-23.5993,-46.75339,RUA NATAL PIGASSI,RUA LAURO FREIRE,2017-02-19 16:00:00,2,nan,3,0,0,0,0,0,0,2,0,0,0,0,0,0,0,0,0,0,0
22736,D021700125,-23.410320000000002,-46.741620000000005,RUA CAVALO MARINHO,nan,2017-02-26 16:19:00,4,nan,1,0,1,0,0,0,0,0,0,0,0,0,0,0,0,0,0,0,0
22737,D021700126,-23.44554,-46.56885,VIA FERNAO DIAS,nan,2017-02-06 19:40:00,4,nan,0,1,0,0,0,0,0,0,0,0,0,0,0,0,0,0,0,0,1
22738,D021700127,-23.50826,-46.7397,VIA ANHANGUERA,nan,2017-02-09 16:45:00,2,nan,1,0,0,1,0,0,0,1,0,0,0,0,0,0,0,0,0,0,0
22739,D021700128,-23.58584,-46.607040000000005,RUA BOM PASTOR,nan,2017-02-15 19:36:00,2,nan,1,0,0,0,0,0,0,1,0,0,1,0,0,0,0,0,0,0,0
22740,D021700129,-23.64927,-46.633,VIA DOS IMIGRANTES,nan,2017-02-15 08:00:00,2,nan,1,0,1,0,0,0,0,1,0,0,0,0,0,0,0,0,0,0,0
22741,D021700130,-23.5848,-46.618840000000006,AV DR RICARDO JAFET,nan,2017-02-14 12:50:00,2,nan,2,0,0,0,0,0,0,2,0,0,0,0,0,0,0,0,0,0,0
22742,D021700131,-23.59423,-46.58648,RUA VEMAG,RUA GUAMIRANGA,2017-02-23 07:50:00,4,nan,1,0,1,0,0,0,0,0,0,0,0,0,0,0,0,0,0,0,0
22743,D021700132,-23.49705,-46.663509999999995,AV ENG CAETANO ALVARES,nan,2017-02-16 17:30:00,2,nan,1,0,1,0,0,0,0,0,0,0,0,0,0,0,0,0,0,0,0
22744,D021700133,-23.44231,-46.58925,RUA USHIKICHI KAMIYA,nan,2017-02-05 09:59:00,4,nan,1,0,0,0,0,0,0,0,0,0,0,0,0,0,0,0,0,0,1
22745,D021700134,-23.54221,-46.631370000000004,RUA BR DE DUPRAT (SE),nan,2017-02-18 14:55:00,4,nan,2,0,0,0,0,0,0,1,0,0,0,0,0,0,0,0,0,0,0
22746,D021700135,-23.59656,-46.69064,RUA FUNCHAL,AV DOS BANDEIRANTES,2017-02-09 18:50:00,4,nan,1,0,0,0,0,0,0,1,0,0,0,0,0,0,0,0,0,0,0
22747,D021700136,-23.48469,-46.41452,RUA ESPIGA DE OURO,nan,2017-02-09 13:20:00,2,nan,1,0,0,0,0,0,1,1,0,0,0,0,0,0,0,0,0,0,0
22748,D021700137,-23.659670000000002,-46.67736,RUA JOSE NEVES,RUA JUCA DE AZEVEDO,2017-02-12 20:20:00,2,nan,2,0,1,0,0,0,0,1,0,0,0,0,0,0,0,0,0,0,0
22749,D021700138,-23.58246,-46.637029999999996,RUA VERGUEIRO,nan,2017-02-20 10:47:00,2,nan,1,0,0,0,0,0,0,2,0,0,0,0,0,0,0,0,0,0,0
22750,D021700139,-23.58473,-46.76677,VIA RAPOSO TAVARES,nan,2017-02-15 21:50:00,2,nan,1,0,0,0,0,0,0,0,0,0,1,0,0,0,0,0,0,0,0
22751,D021700140,-23.514860000000002,-46.45225,ESTRADA DO IMPERADOR,nan,2017-02-05 22:40:00,2,nan,1,0,1,0,0,0,0,1,0,0,0,0,0,0,0,0,0,0,0
22752,D021700141,-23.67465,-46.74665,ESTRADA M'BOI MIRIM,nan,2017-02-17 20:00:00,2,nan,1,0,1,0,0,0,0,1,0,0,0,0,0,0,0,0,0,0,0
22753,D021700142,-23.66562,-46.678340000000006,AV SARG GERALDO SANT'ANA,nan,2017-02-01 08:50:00,4,nan,1,0,0,0,0,0,0,1,0,0,0,0,0,0,0,0,0,0,0
22754,D021700143,-23.54734,-46.64897,RUA DA CONSOLACAO,nan,2017-02-10 08:10:00,2,nan,2,0,1,0,0,0,0,1,0,0,0,0,0,0,0,0,0,0,0
22755,D021700144,-23.5036,-46.75802,RUA NILVA,nan,2017-02-07 14:50:00,4,nan,1,0,1,0,0,0,0,0,0,0,0,0,0,0,0,0,0,0,0
22756,D021700145,-23.694679999999998,-46.78027,ESTRADA M'BOI MIRIM,nan,2017-02-21 07:45:00,2,nan,2,0,1,0,0,0,0,1,0,0,0,0,0,0,0,0,0,0,0
22757,D021700146,-23.59456,-46.41925,ESTRADA IGUATEMI,nan,2017-02-16 22:20:00,4,nan,1,0,1,0,0,0,0,0,0,0,0,0,0,0,0,0,0,0,0
22758,D021700147,-23.44945,-46.700390000000006,AV DEP CANTIDIO SAMPAIO,nan,2017-02-17 21:10:00,2,nan,1,0,1,0,0,0,0,0,0,0,0,0,0,0,0,0,0,0,0
22759,D021700148,-23.56578,-46.67897,RUA CON EUGENIO LEITE,nan,2017-02-09 16:30:00,2,nan,1,0,1,0,0,0,1,0,0,0,0,0,0,0,0,0,0,0,0
22760,D021700149,-23.677870000000002,-46.69696,AV DAS NACOES UNIDAS,nan,2017-02-06 17:40:00,4,nan,1,0,1,0,0,0,0,0,0,0,0,0,0,0,0,0,0,0,0
22761,D021700150,-23.55292,-46.50615,RUA TAPAIUNA,nan,2017-02-02 15:00:00,4,nan,1,0,1,0,0,0,0,0,0,0,0,0,0,0,0,0,0,0,0
22762,D021700151,-23.52024,-46.74178,RUA SILVA AIROSA,nan,2017-02-17 17:15:00,2,nan,1,0,0,1,0,0,0,1,0,0,0,0,0,0,0,0,0,0,0
22763,D021700152,-23.58277,-46.70193,AV S VALERIO,nan,2017-02-22 08:26:00,4,nan,1,0,1,0,0,0,0,0,0,0,0,0,0,0,0,0,0,0,0
22764,D021700153,-23.49567,-46.49759,RUA CANDIDO DE ABREU,nan,2017-02-18 01:39:00,2,nan,1,0,0,1,0,0,1,0,0,0,0,0,0,0,0,0,0,0,0
22765,D021700154,-23.52316,-46.592729999999996,AV GUILHERME COTCHING,nan,2017-02-23 20:11:00,2,nan,1,0,3,0,0,0,0,0,0,0,0,0,0,0,0,0,0,0,0
22766,D021700155,-23.581229999999998,-46.73048,VIA RAPOSO TAVARES,nan,2017-02-09 08:00:00,2,nan,1,0,1,0,0,0,0,1,0,0,0,0,0,0,0,0,0,0,0
22767,D021700156,-23.54419,-46.61987,RUA DO GASOMETRO,nan,2017-02-07 23:44:00,2,nan,2,0,1,0,0,0,0,0,0,0,0,0,0,0,0,0,0,0,0
22768,D021700157,-23.6181,-46.7019,AV MARGINAL DO RIO PINHEIROS (SYL,nan,2017-02-09 18:10:00,2,nan,1,0,0,0,0,0,0,1,0,0,0,0,0,0,0,0,0,0,0
22769,D021700158,-23.532410000000002,-46.5634,RUA ANTONIO MACEDO,nan,2017-02-18 11:15:00,2,nan,1,0,0,1,0,0,0,1,0,0,0,0,0,0,0,0,0,0,0
22770,D021700159,-23.49825,-46.588609999999996,AV CONCEICAO (ES.),nan,2017-02-18 01:22:00,4,nan,1,0,0,0,0,0,0,1,0,0,0,0,0,0,0,0,0,0,0
22771,D021700160,-23.464389999999998,-46.68053,AV DEP CANTIDIO SAMPAIO,nan,2017-02-26 23:45:00,2,nan,1,0,1,0,0,0,0,1,0,0,0,0,0,0,0,0,0,0,0
22772,D021700161,-23.62125,-46.621320000000004,AV DO CURSINO,nan,2017-02-03 21:30:00,2,nan,1,0,0,0,0,0,0,1,0,0,0,0,0,0,0,0,0,0,0
22773,D021700162,-23.552229999999998,-46.63739,AV VINTE E TRES DE MAIO,nan,2017-02-13 23:01:00,2,nan,1,0,0,1,0,0,1,0,0,0,0,0,0,0,0,0,0,0,0
22774,D021700163,-23.52518,-46.6312,AV DO ESTADO,nan,2017-02-04 10:09:00,4,nan,1,0,1,0,0,0,0,0,0,0,0,0,0,0,0,0,0,0,0
22775,D021700164,-23.47327,-46.6131,RUA FRANCISCO DE BRITO,nan,2017-02-17 13:27:00,2,nan,1,0,1,0,0,0,0,1,0,0,0,0,0,0,0,0,0,0,0
22776,D021700165,-23.50165,-46.622859999999996,RUA DR ZUQUIM,nan,2017-02-04 15:47:00,2,nan,2,0,0,0,0,0,0,0,0,0,1,0,0,0,0,0,0,0,0
22777,D021700166,-23.4535,-46.661159999999995,AV FRANCISCO MACHADO DA SILVA,nan,2017-02-19 15:16:00,2,nan,1,0,1,0,0,0,0,1,0,0,0,0,0,0,0,0,0,0,0
22778,D021700167,-23.55206,-46.652570000000004,RUA DONA ANTONIA DE QUEIROS,RUA AUGUSTA,2017-02-04 05:30:00,4,nan,1,0,1,0,0,0,0,0,0,0,0,0,0,0,0,0,0,0,0
22779,D021700168,-23.66349,-46.6874,AV SARG GERALDO SANT'ANA,nan,2017-02-05 17:30:00,2,nan,1,0,1,0,0,0,0,1,0,0,0,0,0,0,0,0,0,0,0
22780,D021700169,-23.48665,-46.7381,AV MUTINGA,AV DO ANASTACIO,2017-02-04 14:38:00,4,nan,2,0,0,0,0,0,0,1,0,0,0,0,0,0,0,0,0,0,0
22781,D021700170,-23.6315,-46.74968,RUA CONSTANTINO DE OLIVEIRA LEDO,nan,2017-02-13 08:15:00,2,nan,0,1,0,0,0,0,1,0,0,0,0,0,0,0,0,0,0,0,1
22782,D021700171,-23.53902,-46.44812,RUA NARCISO ARAUJO,RUA SABBADO D'ANGELO,2017-02-04 21:30:00,4,nan,1,0,0,0,0,0,0,0,0,0,0,0,0,0,0,0,0,0,1
22783,D021700172,-23.68746,-46.79296,RUA LUAR DO SERTAO,nan,2017-02-05 19:09:00,2,nan,2,0,1,0,0,0,0,1,0,0,0,0,0,0,0,0,0,0,0
22784,D021700173,-23.541610000000002,-46.58161,VIADUTO PIRES DO RIO,nan,2017-02-06 00:48:00,2,nan,1,0,1,0,0,0,0,0,0,0,0,0,0,0,0,0,0,0,0
22785,D021700174,-23.48755,-46.720490000000005,RUA GUERINO GIOVANI LEARDINI,nan,2017-02-16 14:40:00,2,nan,1,0,0,0,0,0,1,0,0,0,1,0,0,0,0,0,0,0,0
22786,D021700175,-23.628970000000002,-46.7362,AV GIOVANNI GRONCHI,nan,2017-02-18 06:40:00,2,nan,1,0,1,0,0,0,0,1,0,0,0,0,0,0,0,0,0,0,0
22787,D021700176,-23.661820000000002,-46.76335,RUA PAULINO VITAL DE MORAIS,nan,2017-02-19 21:00:00,2,nan,1,0,1,0,0,0,0,1,0,0,0,0,0,0,0,0,0,0,0
22788,D021700177,-23.527810000000002,-46.740120000000005,AV DR GASTAO VIDIGAL,nan,2017-02-19 00:20:00,2,nan,2,0,1,1,0,0,0,0,0,0,0,0,0,0,0,0,0,0,0
22789,D021700178,-23.51378,-46.45244,ESTRADA DO IMPERADOR,nan,2017-02-07 13:30:00,4,nan,2,0,0,0,0,0,0,1,0,0,0,0,0,0,0,0,0,0,0
22790,D021700179,-23.548820000000003,-46.73788,AV JAGUARE,nan,2017-02-20 07:48:00,4,nan,1,0,0,0,0,0,0,1,0,0,0,0,0,0,0,0,0,0,0
22791,D021700180,-23.43516,-46.715540000000004,AV DEP CANTIDIO SAMPAIO,nan,2017-02-14 10:30:00,4,nan,1,0,0,0,0,0,0,1,0,0,0,0,0,0,0,0,0,0,0
22792,D021700181,-23.52577,-46.67100000000001,RUA PEDRO MACHADO,nan,2017-02-05 00:15:00,2,nan,2,0,1,0,0,0,0,1,0,0,0,0,0,0,0,0,0,0,0
22793,D021700182,-23.5863,-46.68881,AV CIDADE JARDIM,nan,2017-02-02 17:00:00,2,nan,1,0,1,0,0,0,0,1,0,0,0,0,0,0,0,0,0,0,0
22794,D021700183,-23.48237,-46.60732,RUA DO TRAMWAY,nan,2017-02-05 06:15:00,2,nan,1,0,0,0,0,0,0,1,0,0,0,0,0,0,0,0,0,0,0
22795,D021700184,-23.56561,-46.71235,RUA ALVARENGA,nan,2017-02-21 09:20:00,2,nan,1,0,1,0,0,0,1,0,0,0,0,0,0,0,0,0,0,0,0
22796,D021700185,-23.53474,-46.5464,RUA GAL SOUSA NETO,nan,2017-02-21 21:30:00,4,nan,1,0,1,0,0,0,0,0,0,0,0,0,0,0,0,0,0,0,0
22797,D021700186,-23.706979999999998,-46.712540000000004,AV ATLANTICA ANT. ROBERT KENNEDY,nan,2017-02-06 01:13:00,2,nan,2,0,2,0,0,0,0,0,0,0,0,0,0,0,0,0,0,0,0
22798,D021700187,-23.49021,-46.69944,AV MIN PETRONIO PORTELA,nan,2017-02-07 14:21:00,2,nan,1,0,2,0,0,0,0,0,0,0,0,0,0,0,0,0,0,0,0
22799,D021700188,-23.55905,-46.603190000000005,RUA CANUTO SARAIVA,nan,2017-02-21 20:08:00,2,nan,1,0,1,0,0,0,0,1,0,0,0,0,0,0,0,0,0,0,0
22800,D021700189,-23.6082,-46.690909999999995,RUA CATIPARA,RUA PENSILVANIA,2017-02-20 10:00:00,2,nan,1,0,2,0,0,0,0,0,0,0,0,0,0,0,0,0,0,0,0
22801,D021700190,-23.54496,-46.44533,RUA SABBADO D'ANGELO,nan,2017-02-11 23:30:00,2,nan,1,0,1,0,0,0,0,1,0,0,0,0,0,0,0,0,0,0,0
22802,D021700191,-23.509970000000003,-46.581179999999996,AV DAS CEREJEIRAS,nan,2017-02-20 12:00:00,2,nan,1,0,1,0,0,0,0,1,0,0,0,0,0,0,0,0,0,0,0
22803,D021700192,-23.599120000000003,-46.53783,RUA ANGELINA GAZETA ROMANINI,nan,2017-02-02 18:05:00,2,nan,1,0,0,0,0,0,0,2,0,0,0,0,0,0,0,0,0,0,0
22804,D021700193,-23.495179999999998,-46.66767,RUA ANTONIO VERA CRUZ,nan,2017-02-16 20:25:00,4,nan,1,0,1,0,0,0,0,0,0,0,0,0,0,0,0,0,0,0,0
22805,D021700194,-23.48734,-46.59044,RUA MAJ DANTAS CORTEZ,nan,2017-02-06 07:30:00,2,nan,1,0,1,0,0,0,0,1,0,0,0,0,0,0,0,0,0,0,0
22806,D021700195,-23.51185,-46.57375,RUA SOLD BENEDITO PATRICIO,nan,2017-02-15 12:00:00,4,nan,1,0,1,0,0,0,0,0,0,0,0,0,0,0,0,0,0,0,0
22807,D021700196,-23.55828,-46.66081,AV PAULISTA,nan,2017-02-22 08:45:00,4,nan,1,0,1,0,0,0,0,0,0,0,0,0,0,0,0,0,0,0,0
22808,D021700197,-23.447329999999997,-46.57626,AV ARLEY GILBERTO DE ARAUJO,nan,2017-02-08 05:00:00,2,nan,1,0,1,0,0,0,0,1,0,0,0,0,0,0,0,0,0,0,0
22809,D021700198,-23.557879999999997,-46.69014,RUA ASPICUELTA,RUA FRADIQUE COUTINHO,2017-02-23 22:00:00,4,nan,1,0,0,1,0,0,0,0,0,0,0,0,0,0,0,0,0,0,0
22810,D021700199,-23.56183,-46.74731,AV CORIFEU DE AZEVEDO MARQUES,nan,2017-02-16 08:50:00,2,nan,1,0,2,1,0,0,0,0,0,0,0,0,0,0,0,0,0,0,0
22811,D021700200,-23.44456,-46.618159999999996,AV NOVA CANTAREIRA,nan,2017-02-21 12:30:00,4,nan,1,0,0,0,0,0,0,0,0,0,0,0,0,0,1,0,0,0,0
22812,D021700201,-23.55404,-46.6757,RUA CARD ARCOVERDE,nan,2017-02-08 09:30:00,2,nan,1,0,1,0,0,0,0,1,0,0,0,0,0,0,0,0,0,0,0
22813,D021700202,-23.56468,-46.611090000000004,AV DO ESTADO,RUA IBIRUBA,2017-02-06 09:00:00,2,nan,1,0,0,0,0,0,0,1,0,0,0,0,0,0,0,0,0,0,0
22814,D021700203,-23.45665,-46.720040000000004,AV RAIMUNDO PEREIRA DE MAGAL.,nan,2017-02-20 08:04:00,2,nan,1,0,1,0,0,0,0,1,0,0,0,0,0,0,0,0,0,0,0
22815,D021700204,-23.64451,-46.715579999999996,AV JOAO DIAS,nan,2017-02-16 11:47:00,2,nan,1,0,1,0,0,0,0,1,0,0,0,0,0,0,0,0,0,0,0
22816,D021700205,-23.55472,-46.60252,RUA JAVARI,nan,2017-02-10 20:00:00,4,nan,1,0,1,0,0,0,0,0,0,0,0,0,0,0,0,0,0,0,0
22817,D021700206,-23.718770000000003,-46.67986,RUA RICARDO JULIO FERRAZ,RUA MARCIANO DA SILVA,2017-02-18 20:30:00,2,nan,1,0,1,0,0,0,0,1,0,0,0,0,0,0,0,0,0,0,0
22818,D021700207,-23.50281,-46.660759999999996,AV CASA VERDE,nan,2017-02-17 11:18:00,2,nan,1,0,1,0,0,0,0,1,0,0,0,0,0,0,0,0,0,0,0
22819,D021700208,-23.55282,-46.50428,RUA CANANGA,nan,2017-02-09 08:53:00,4,nan,0,1,0,0,0,0,0,0,0,0,1,0,0,0,0,0,0,0,0
22820,D021700209,-23.499270000000003,-46.70485,RUA SETE BARRAS,nan,2017-02-09 07:22:00,4,nan,1,0,1,0,0,0,0,0,0,0,0,0,0,0,0,0,0,0,0
22821,D021700210,-23.58488,-46.583090000000006,AV PROF LUIZ IGNACIO ANHAIA MELLO,nan,2017-02-15 09:56:00,2,nan,2,0,0,0,0,0,0,1,0,0,0,0,0,0,0,0,0,0,0
22822,D021700211,-23.54036,-46.62996,RUA DA CANTAREIRA,nan,2017-02-04 02:37:00,4,nan,1,0,1,0,0,0,0,0,0,0,0,0,0,0,0,0,0,0,0
22823,D021700212,-23.60294,-46.564040000000006,RUA JUSTINIANO,nan,2017-02-17 13:53:00,2,nan,1,0,0,0,0,0,0,1,0,0,1,0,0,0,0,0,0,0,0
22824,D021700213,-23.52851,-46.5539,VIADUTO ENG ALBERTO BADRA,nan,2017-02-11 01:55:00,2,nan,4,0,1,0,0,0,0,0,0,0,0,0,0,0,0,0,0,0,0
22825,D021700214,-23.57193,-46.70254,RUA LEMOS MONTEIRO,nan,2017-02-02 20:28:00,2,nan,1,0,0,0,0,0,1,1,0,0,0,0,0,0,0,0,0,0,0
22826,D021700215,-23.589470000000002,-46.6242,RUA DIONISIO DA COSTA,nan,2017-02-14 17:00:00,2,nan,1,0,1,0,0,0,1,0,0,0,0,0,0,0,0,0,0,0,0
22827,D021700216,-23.60115,-46.469879999999996,AV RAGUEB CHOHFI,nan,2017-02-05 03:00:00,2,nan,3,0,2,0,0,0,0,0,0,0,0,0,0,0,0,0,0,0,0
22828,D021700217,-23.42826,-46.73526,ESTRADA DA CACHOEIRA (JARAGUA0,nan,2017-02-03 06:45:00,2,nan,1,0,0,0,0,0,0,1,0,0,0,0,0,0,0,0,0,0,0
22829,D021700218,-23.54213,-46.40976,VIADUTO DEP ANTONIO SYLVIO CUNHA BUENO,nan,2017-02-05 01:30:00,2,nan,1,0,0,0,0,0,0,1,0,0,0,0,0,0,1,0,0,0,0
22830,D021700219,-23.495639999999998,-46.43373,AV MAL TITO,nan,2017-02-03 18:20:00,4,nan,1,0,1,0,0,0,0,0,0,0,0,0,0,0,0,0,0,0,0
22831,D021700220,-23.58279,-46.50923,RUA NELLO SELMI DEI,nan,2017-02-22 10:30:00,2,nan,1,0,0,0,0,0,0,0,0,0,1,0,0,0,0,0,0,0,0
22832,D021700221,-23.51837,-46.61144,RUA AMAZONAS DA SILVA,nan,2017-02-17 09:37:00,2,nan,1,0,1,1,0,0,0,0,0,0,0,0,0,0,0,0,0,0,0
22833,D021700222,-23.60274,-46.52395,RUA S ROQUE,nan,2017-02-17 13:29:00,4,nan,2,0,1,0,0,0,0,0,0,0,0,0,0,0,0,0,0,0,0
22834,D021700223,-23.49421,-46.49075,RUA ANISIO DE ABREU,nan,2017-02-04 19:12:00,2,nan,1,0,1,0,0,0,0,1,0,0,0,0,0,0,0,0,0,0,0
22835,D021700224,-23.55786,-46.57817,AV ALVARO RAMOS,RUA DO ACRE,2017-02-21 18:45:00,2,nan,1,0,0,0,0,0,0,2,0,0,0,0,0,0,0,0,0,0,0
22836,D021700225,-23.505029999999998,-46.688159999999996,AV INAJAR DE SOUZA,nan,2017-02-20 18:53:00,2,nan,1,0,1,0,0,0,1,0,0,0,0,0,0,0,0,0,0,0,0
22837,D021700226,-23.62315,-46.6296,AV MIGUEL ESTEFANO,nan,2017-02-12 15:45:00,2,nan,1,0,1,0,0,0,0,1,0,0,0,0,0,0,0,0,0,0,0
22838,D021700227,-23.68841,-46.800309999999996,RUA LUAR DO SERTAO,RUA BORLANGE,2017-02-24 07:00:00,2,nan,1,0,1,0,0,0,0,0,0,0,1,0,0,0,0,0,0,0,0
22839,D021700228,-23.6493,-46.77418,RUA JOSE RAMOS FERNANDES,RUA GOLPAZARI,2017-02-11 00:46:00,4,nan,3,0,0,0,0,0,0,1,0,0,0,0,0,0,0,0,0,0,0
22840,D021700229,-23.60828,-46.74365,AV DR GUILHERME DUMONT VILARES,nan,2017-02-17 15:45:00,2,nan,1,0,0,0,0,0,0,0,0,0,1,0,0,0,0,0,0,0,0
22841,D021700230,-23.54251,-46.58605,AV ALCANTARA MACHADO,nan,2017-02-19 10:40:00,2,nan,2,0,2,0,0,0,0,0,0,0,0,0,0,0,0,0,0,0,0
22842,D021700231,-23.73068,-46.79027,RUA BR DE PAIVA MANSO,nan,2017-02-05 20:40:00,2,nan,2,0,3,0,0,0,0,0,0,0,0,0,0,0,0,0,0,0,0
22843,D021700232,-23.562079999999998,-46.61132,PRACA ALBERTO LION,nan,2017-02-18 05:00:00,2,nan,1,0,1,0,0,0,0,1,0,0,0,0,0,0,0,0,0,0,0
22844,D021700233,-23.55705,-46.523709999999994,AV DEZENOVE DE JANEIRO,nan,2017-02-07 09:38:00,2,nan,1,0,1,0,0,0,0,1,0,0,0,0,0,0,0,0,0,0,0
22845,D021700234,-23.55228,-46.4448,AV PROF JOAO BATISTA CONTI,nan,2017-02-05 13:00:00,4,nan,1,0,1,0,0,0,0,0,0,0,0,0,0,0,0,0,0,0,0
22846,D021700235,-23.49111,-46.675340000000006,AV DEP EMILIO CARLOS,nan,2017-02-10 20:53:00,2,nan,2,0,2,0,0,0,0,0,0,0,0,0,0,0,0,0,0,0,0
22847,D021700236,-23.51969,-46.65429,RUA BRA DE PORTO CARREIRO,RUA CRUZEIRO,2017-02-02 07:30:00,2,nan,1,0,1,0,0,0,0,0,0,0,1,0,0,0,0,0,0,0,0
22848,D021700237,-23.608829999999998,-46.581,AV MICHEL SALIBA,nan,2017-02-08 21:00:00,2,nan,1,0,1,0,0,0,0,1,0,0,0,0,0,0,0,0,0,0,0
22849,D021700238,-23.591089999999998,-46.550740000000005,AV DO ORATORIO,nan,2017-02-16 16:10:00,4,nan,1,0,1,0,0,0,0,0,0,0,0,0,0,0,0,0,0,0,0
22850,D021700239,-23.49425,-46.42736,AV MAL TITO,nan,2017-02-18 00:30:00,4,nan,1,0,1,0,0,0,0,0,0,0,0,0,0,0,0,0,0,0,0
22851,D021700240,-23.5798,-46.57162,AV SALIM FARAH MALUF,nan,2017-02-19 22:05:00,4,nan,0,1,2,0,0,0,0,0,0,0,0,0,0,0,0,0,0,0,0
22852,D021700241,-23.58085,-46.6502,AV VINTE E TRES DE MAIO,nan,2017-02-04 05:40:00,2,nan,3,0,3,0,0,0,0,0,0,0,0,0,0,0,0,0,0,0,0
22853,D021700242,-23.62664,-46.61894,CV MARIA MALUF,nan,2017-02-11 15:30:00,2,nan,1,0,0,0,0,0,0,1,0,0,0,0,0,1,0,0,0,0,0
22854,D021700243,-23.48348,-46.76163,RUA CASPARINO DE QUADROS,nan,2017-02-05 13:00:00,4,nan,1,0,1,0,0,0,0,0,0,0,0,0,0,0,0,0,0,0,0
22855,D021700244,-23.66144,-46.63857,RUA HILDEBRANDO SIQUEIRA,nan,2017-02-16 14:54:00,4,nan,1,0,0,0,0,0,0,1,0,0,0,0,0,0,0,0,0,0,0
22856,D021700245,-23.510279999999998,-46.51364,RUA GENTIL BRAGA,nan,2017-02-06 08:20:00,2,nan,1,0,0,1,0,0,0,1,0,0,0,0,0,0,0,0,0,0,0
22857,D021700246,-23.67822,-46.73377,AV GUARAPIRANGA,nan,2017-02-16 17:22:00,2,nan,1,0,1,0,0,0,0,2,0,0,0,0,0,0,0,0,0,0,0
22858,D021700247,-23.486279999999997,-46.585570000000004,RUA GEOLANDIA,nan,2017-02-01 16:30:00,2,nan,2,0,2,0,0,0,0,0,0,0,0,0,0,0,0,0,0,0,0
22859,D021700248,-23.54169,-46.41239,RUA GETULINA,nan,2017-02-10 17:25:00,2,nan,1,0,0,0,0,0,0,1,0,0,0,0,0,0,0,0,0,0,0
22860,D021700249,-23.44011,-46.72112,AV RAIMUNDO PEREIRA DE MAGAL.,nan,2017-02-11 16:00:00,2,nan,1,0,1,0,0,0,0,1,0,0,0,0,0,0,0,0,0,0,0
22861,D021700250,-23.59946,-46.5526,RUA COSTA BARROS (ANT. SAO JOSE),nan,2017-02-11 15:00:00,4,nan,1,0,1,0,0,0,0,0,0,0,0,0,0,0,0,0,0,0,0
22862,D021700251,-23.539379999999998,-46.64563,AV DUQ DE CAXIAS,nan,2017-02-10 09:30:00,2,nan,1,0,0,1,0,0,0,1,0,0,0,0,0,0,0,0,0,0,0
22863,D021700252,-23.48554,-46.579229999999995,AV JARDIM JAPAO,nan,2017-02-12 07:32:00,2,nan,4,0,1,0,0,0,0,0,0,0,0,0,0,0,0,0,0,0,0
22864,D021700253,-23.50744,-46.48495,AV S MIGUEL,RUA CHAPADA,2017-02-26 16:15:00,2,nan,1,0,1,0,0,0,1,0,0,0,0,0,0,0,0,0,0,0,0
22865,D021700254,-23.50104,-46.65481,RUA AGUAS VIRTUOSAS,RUA FRANCISCO DIOGO,2017-02-10 14:30:00,2,nan,1,0,1,0,0,0,0,1,0,0,0,0,0,0,0,0,0,0,0
22866,D021700255,-23.73469,-46.694390000000006,RUA INACIO RAMOS,nan,2017-02-16 16:00:00,4,nan,1,0,1,0,0,0,0,0,0,0,0,0,0,0,0,0,0,0,0
22867,D021700256,-23.64902,-46.66174,RUA ALBA,AV STA CATARINA,2017-02-02 09:59:00,4,nan,1,0,1,0,0,0,0,0,0,0,0,0,0,0,0,0,0,0,0
22868,D021700257,-23.47516,-46.63139,AV STA INES,nan,2017-02-23 15:30:00,2,nan,1,0,1,0,0,0,0,1,0,0,0,0,0,0,0,0,0,0,0
22869,D021700258,-23.6303,-46.6363,AV AFFONSO D'ESCRAGNOLLE TAUNAY,nan,2017-02-19 01:00:00,4,nan,0,1,0,0,0,0,0,0,0,0,0,0,0,0,0,0,0,0,1
22870,D021700259,-23.40239,-46.747409999999995,RUA ESTEVAN RIBEIRO RESENDE,nan,2017-02-03 20:40:00,4,nan,0,1,1,0,0,0,0,0,0,0,0,0,0,0,0,0,0,0,0
22871,D021700260,-23.65002,-46.607929999999996,RUA FRANCOIS BUNEL,nan,2017-02-14 10:40:00,2,nan,1,0,1,0,0,0,0,1,0,0,0,0,0,0,0,0,0,0,0
22872,D021700261,-23.550629999999998,-46.5357,RUA ENG PEGADO,RUA DULCE,2017-02-06 12:00:00,2,nan,1,0,1,0,0,0,0,1,0,0,0,0,0,0,0,0,0,0,0
22873,D021700262,-23.61811,-46.64844,AV INDIANOPOLIS,nan,2017-02-11 14:30:00,2,nan,1,0,1,0,0,0,0,1,0,0,0,0,0,0,0,0,0,0,0
22874,D021700263,-23.72095,-46.69876,AV SEN TEOTONIO VILELA,nan,2017-02-06 15:30:00,2,nan,1,0,0,0,0,0,0,1,0,0,0,0,0,0,0,0,0,0,0
22875,D021700264,-23.55115,-46.52174,AV ARICANDUVA,nan,2017-02-09 08:00:00,2,nan,1,0,0,0,0,0,0,2,0,0,0,0,0,0,0,0,0,0,0
22876,D021700265,-23.65714,-46.76155,AV AGOSTINHO RUBIN,nan,2017-02-02 12:28:00,4,nan,1,0,1,0,0,0,0,0,0,0,0,0,0,0,0,0,0,0,0
22877,D021700266,-23.60526,-46.596109999999996,RUA CEL SILVA CASTRO,nan,2017-02-04 01:30:00,4,nan,1,0,0,1,0,0,0,0,0,0,0,0,0,0,0,0,0,0,0
22878,D021700267,-23.53585,-46.717909999999996,RUA CERRO CORA,nan,2017-02-22 15:45:00,2,nan,1,0,1,0,0,0,0,1,0,0,0,0,0,0,0,0,0,0,0
22879,D021700268,-23.47064,-46.67623,AV DEP CANTIDIO SAMPAIO,RUA DR COUTO DE BARROS,2017-02-22 08:10:00,4,nan,1,0,0,0,0,0,0,0,0,0,1,0,0,0,0,0,0,0,0
22880,D021700269,-23.71366,-46.697990000000004,AV SEN TEOTONIO VILELA,nan,2017-02-21 11:00:00,2,nan,1,0,0,0,0,0,0,0,0,0,1,0,0,0,0,0,0,0,0
22881,D021700270,-23.51377,-46.547740000000005,AV GOV CARVALHO PINTO,nan,2017-02-09 07:00:00,4,nan,1,0,0,0,0,0,0,1,0,0,0,0,0,0,0,0,0,0,0
22882,D021700271,-23.46687,-46.58395,AV GUAPIRA,nan,2017-02-24 09:25:00,2,nan,1,0,1,0,0,0,0,1,0,0,0,0,0,0,0,0,0,0,0
22883,D021700272,-23.50846,-46.73873,AV MANOEL MONTEIRO DE ARAUJO,nan,2017-02-06 22:30:00,2,nan,1,0,0,0,0,0,0,0,0,0,1,0,0,0,0,0,0,0,0
22884,D021700273,-23.44004,-46.58752,RUA USHIKICHI KAMIYA,nan,2017-02-04 10:50:00,2,nan,1,0,0,0,0,0,1,0,0,0,1,0,0,0,0,0,0,0,0
22885,D021700274,-23.50657,-46.532759999999996,PRACA BARRA DO OURO,nan,2017-02-19 23:53:00,2,nan,2,0,2,0,0,0,0,0,0,0,0,0,0,0,0,0,0,0,0
22886,D021700275,-23.49261,-46.47497,RUA FRANCISCO MATIAS DA SILVA,nan,2017-02-05 20:00:00,4,nan,1,0,1,0,0,0,0,0,0,0,0,0,0,0,0,0,0,0,0
22887,D021700276,-23.75607,-46.70903,RUA SINFONIA ITALIANA,nan,2017-02-19 12:35:00,2,nan,1,0,1,0,0,0,0,0,0,0,1,0,0,0,0,0,0,0,0
22888,D021700277,-23.61306,-46.47235,AV SAPOPEMBA,RUA RHEA,2017-02-08 07:30:00,2,nan,1,0,1,0,0,0,0,1,0,0,0,0,0,0,0,0,0,0,0
22889,D021700278,-23.64459,-46.746,ESTRADA DE ITAPECERICA,nan,2017-02-11 18:30:00,2,nan,1,0,1,0,0,0,0,1,0,0,0,0,0,0,0,0,0,0,0
22890,D021700279,-23.550520000000002,-46.50861,RUA UXI,nan,2017-02-11 20:00:00,4,nan,1,0,0,0,0,0,0,1,0,0,0,0,0,0,0,0,0,0,0
22891,D021700280,-23.51108,-46.54051,AV CANGAIBA,nan,2017-02-06 08:28:00,2,nan,1,0,1,0,0,0,0,1,0,0,0,0,0,0,0,0,0,0,0
22892,D021700281,-23.58135,-46.730470000000004,VIA RAPOSO TAVARES,nan,2017-02-04 08:30:00,2,nan,2,0,1,0,0,0,0,1,0,0,0,0,0,0,0,0,0,0,0
22893,D021700282,-23.562829999999998,-46.611779999999996,PRACA ALBERTO LION,nan,2017-02-28 19:50:00,2,nan,1,0,1,0,0,0,0,0,0,0,1,0,0,0,0,0,0,0,0
22894,D021700283,-23.49166,-46.57497,AV MILTON DA ROCHA,nan,2017-02-11 02:10:00,2,nan,1,1,0,0,0,0,0,1,0,0,1,0,0,0,0,0,0,0,0
22895,D021700284,-23.62351,-46.66089,AV WASHINGTON LUIS,nan,2017-02-17 04:20:00,2,nan,1,0,0,0,0,0,0,0,0,0,1,0,0,0,0,0,0,0,0
22896,D021700285,-23.48351,-46.65449,AV IMIRIM,nan,2017-02-09 10:02:00,2,nan,2,0,1,0,0,0,0,1,0,0,0,0,0,0,0,0,0,0,0
22897,D021700286,-23.553539999999998,-46.61522,AV ALCANTARA MACHADO,nan,2017-02-08 16:30:00,2,nan,1,0,1,0,0,0,0,1,0,0,0,0,0,0,0,0,0,0,0
22898,D021700287,-23.6856,-46.7503,AV GUARAPIRANGA,nan,2017-02-04 22:46:00,2,nan,2,0,1,0,0,0,0,1,0,0,0,0,0,0,0,0,0,0,0
22899,D021700288,-23.58286,-46.68465,AV BRIG FARIA LIMA,nan,2017-02-18 13:00:00,2,nan,2,0,1,1,0,0,0,1,0,0,0,0,0,0,0,0,0,0,0
22900,D021700289,-23.54593,-46.59733,AV ALCANTARA MACHADO,nan,2017-02-03 08:56:00,2,nan,1,0,2,0,0,0,0,1,0,0,0,0,0,0,0,0,0,0,0
22901,D021700290,-23.536179999999998,-46.63648,RUA GAL COUTO DE MAGALHAES,nan,2017-02-07 19:30:00,2,nan,1,0,0,0,0,0,0,0,0,0,0,0,0,0,0,0,0,0,1
22902,D021700291,-23.531229999999997,-46.59125,AV CDSSA ELISABETH DE ROBIANO,nan,2017-02-11 16:20:00,2,nan,1,0,2,0,0,0,0,0,0,0,0,0,0,0,0,0,0,0,0
22903,D021700292,-23.554779999999997,-46.7368,AV ESCOLA POLITECNICA,nan,2017-02-08 09:00:00,2,nan,1,0,1,0,0,0,0,1,0,0,0,0,0,0,0,0,0,0,0
22904,D021700293,-23.59936,-46.52602,RUA CORREIA DA CAMARA,nan,2017-02-09 16:57:00,2,nan,1,0,1,0,0,0,0,0,0,0,0,0,0,0,0,0,0,0,0
22905,D021700294,-23.61182,-46.67003,AV IBIRAPUERA,nan,2017-02-18 06:15:00,2,nan,2,0,0,0,0,0,0,0,0,0,2,0,0,0,0,0,0,0,0
22906,D021700295,-23.555239999999998,-46.69123,RUA FIDALGA,nan,2017-02-19 05:36:00,4,nan,1,0,1,0,0,0,0,0,0,0,0,0,0,0,0,0,0,0,0
22907,D021700296,-23.69556,-46.65178,ESTRADA DO ALVARENGA,nan,2017-02-27 19:55:00,2,nan,2,0,2,0,0,0,0,1,0,0,0,0,0,0,0,0,0,0,0
22908,D021700297,-23.58149,-46.634840000000004,RUA MACHADO DE ASSIS,nan,2017-02-20 07:40:00,2,nan,1,0,0,0,0,0,0,1,0,0,0,0,0,0,0,0,0,0,0
22909,D021700298,-23.55216,-46.41681,RUA PROF FRANCISCO PINHEIRO,nan,2017-02-07 12:39:00,4,nan,1,0,1,0,0,0,0,0,0,0,0,0,0,0,0,0,0,0,0
22910,D021700299,-23.59248,-46.50271,AV LUIS PIRES DE MINAS,nan,2017-02-26 14:48:00,4,nan,0,1,0,0,0,0,0,1,0,0,0,0,0,0,0,0,0,0,0
22911,D021700300,-23.49726,-46.4532,RUA CEL MANUEL FELICIANO DE SOUZA,nan,2017-02-08 19:20:00,4,nan,1,0,0,0,0,0,0,1,0,0,0,0,0,0,0,0,0,0,0
22912,D021700301,-23.71769,-46.69914,AV SEN TEOTONIO VILELA,AV ATLANTICA ANT. ROBERT KENNEDY,2017-02-21 18:00:00,2,nan,1,0,0,0,0,0,0,0,0,0,1,0,0,0,0,0,0,0,0
22913,D021700302,-23.57101,-46.54717,RUA NEBULOSA,nan,2017-02-10 10:30:00,4,nan,2,0,0,0,0,0,0,1,0,0,0,0,0,0,0,0,0,0,0
22914,D021700303,-23.595679999999998,-46.52491,AV SAPOPEMBA,nan,2017-02-09 17:37:00,4,nan,1,0,0,0,0,0,0,1,0,0,0,0,0,0,0,0,0,0,0
22915,D021700304,-23.58162,-46.77319,RUA ANTONIETA DE MARCO,nan,2017-02-13 11:20:00,2,nan,1,0,1,0,0,0,0,1,0,0,0,0,0,0,0,0,0,0,0
22916,D021700305,-23.58355,-46.569990000000004,AV PROF LUIZ IGNACIO ANHAIA MELLO,nan,2017-02-22 14:00:00,2,nan,1,0,0,0,0,0,0,1,0,0,0,0,0,0,0,0,0,0,0
22917,D021700306,-23.52356,-46.49385,RUA JARAUARA,AV CALIM EID (PTE RASA),2017-02-08 22:30:00,2,nan,2,0,1,0,0,0,0,1,0,0,0,0,0,0,0,0,0,0,0
22918,D021700307,-23.75648,-46.66746,RUA PEDRO ESCOBAR,nan,2017-02-18 22:40:00,2,nan,1,0,1,0,0,0,0,1,0,0,0,0,0,0,0,0,0,0,0
22919,D021700308,-23.58454,-46.40945,AV DOS METALURGICOS,nan,2017-02-11 22:00:00,4,nan,1,0,1,0,0,0,0,0,0,0,0,0,0,0,0,0,0,0,0
22920,D021700309,-23.53181,-46.52528,AV CD DE FRONTIN,nan,2017-02-28 19:45:00,4,nan,1,0,1,0,0,0,0,0,0,0,0,0,0,0,0,0,0,0,0
22921,D021700310,-23.51729,-46.45498,AV JACU-PESSEGO/NOVA TRABALHADORE,nan,2017-02-02 19:00:00,4,nan,1,0,1,0,0,0,0,0,0,0,0,0,0,0,0,0,0,0,0
22922,D021700311,-23.62102,-46.441559999999996,AV SAPOPEMBA,nan,2017-02-12 23:50:00,4,nan,1,0,1,0,0,0,0,0,0,0,0,0,0,0,0,0,0,0,0
22923,D021700312,-23.56684,-46.66003,ALAMEDA CASA BRANCA,nan,2017-02-18 14:20:00,2,nan,1,0,2,0,0,0,0,0,0,0,0,0,0,0,0,0,0,0,0
22924,D021700313,-23.586289999999998,-46.588879999999996,RUA JOAO AFONSO,RUA AMPARO,2017-02-16 17:00:00,2,nan,1,0,0,0,0,0,0,2,0,0,0,0,0,0,0,0,0,0,0
22925,D021700314,-23.82036,-46.73512,AV SADAMU INOUE,nan,2017-02-27 21:56:00,2,nan,2,0,1,0,0,0,0,0,0,0,0,0,0,0,0,0,0,0,0
22926,D021700315,-23.51475,-46.451879999999996,ESTRADA DO IMPERADOR,nan,2017-02-09 10:00:00,4,nan,1,0,1,0,0,0,0,0,0,0,0,0,0,0,0,0,0,0,0
22927,D021700316,-23.59681,-46.63153,RUA SOUSA RAMOS,nan,2017-02-18 14:10:00,2,nan,1,0,0,0,0,0,0,1,0,0,1,0,0,0,0,0,0,0,0
22928,D021700317,-23.50461,-46.75868,RUA BETIM PAIS LEME,nan,2017-02-15 07:10:00,4,nan,1,0,1,0,0,0,0,0,0,0,0,0,0,0,0,0,0,0,0
22929,D021700318,-23.57476,-46.77795,PRACA TOMAS COELHO DE ALMEIDA,nan,2017-02-14 12:20:00,4,nan,1,0,0,0,0,0,0,1,0,0,0,0,0,0,0,0,0,0,0
22930,D021700319,-23.58761,-46.483990000000006,AV ARICANDUVA,nan,2017-02-02 11:30:00,2,nan,2,0,1,0,0,0,0,0,0,0,0,0,0,0,0,0,0,0,0
22931,D021700320,-23.56491,-46.680240000000005,AV REBOUCAS,nan,2017-02-07 13:40:00,2,nan,1,0,2,0,0,0,0,1,0,0,0,0,0,0,0,0,0,0,0
22932,D021700321,-23.610120000000002,-46.73639,RUA CUSTODIO DE OLIVEIRA,nan,2017-02-02 09:03:00,2,nan,1,0,1,0,0,0,0,1,0,0,0,0,0,0,0,0,0,0,0
22933,D021700322,-23.50304,-46.65377,RUA OURO GROSSO,AV CASA VERDE,2017-02-19 00:56:00,2,nan,2,0,1,0,0,0,0,1,0,0,0,0,0,0,0,0,0,0,0
22934,D021700323,-23.56493,-46.6522,AV PAULISTA,ALAMEDA CAMPINAS,2017-02-23 14:45:00,2,nan,1,0,0,0,0,0,0,0,0,0,1,0,0,0,0,0,0,0,0
22935,D021700324,-23.44891,-46.71658,AV ELISIO TEIXEIRA LEITE,nan,2017-02-27 07:30:00,2,nan,1,0,0,0,0,0,0,1,0,0,0,0,0,0,0,0,0,0,0
22936,D021700325,-23.47922,-46.7549,ESTRADA TURISTICA DO JARAGUA,nan,2017-02-25 14:00:00,2,nan,1,0,1,0,0,0,0,1,0,0,0,0,0,0,0,0,0,0,0
22937,D021700326,-23.55888,-46.43848,RUA AGRIM SUGAYA,nan,2017-02-27 16:30:00,2,nan,1,0,0,0,0,0,0,2,0,0,0,0,0,0,0,0,0,0,0
22938,D021700327,-23.49234,-46.69335,RUA BAIAO PARENTE,nan,2017-02-25 18:10:00,4,nan,4,0,1,0,0,0,0,0,0,0,0,0,0,0,0,0,0,0,0
22939,D021700328,-23.50076,-46.530770000000004,RUA DR ASSIS RIBEIRO,nan,2017-02-22 00:48:00,2,nan,1,0,0,0,0,0,0,1,0,0,0,0,0,0,0,0,0,0,0
22940,D021700329,-23.64708,-46.66089,RUA ALBA,nan,2017-02-07 12:44:00,4,nan,1,0,1,0,0,0,0,0,0,0,0,0,0,0,0,0,0,0,0
22941,D021700330,-23.49522,-46.64405,AV IMIRIM,nan,2017-02-13 08:00:00,2,nan,1,0,1,0,0,0,0,1,0,0,0,0,0,0,0,0,0,0,0
22942,D021700331,-23.407120000000003,-46.75997,AV DR SILVIO DE CAMPOS,nan,2017-02-21 14:15:00,2,nan,1,0,0,0,0,0,0,1,0,0,0,0,0,0,0,0,0,0,0
22943,D021700332,-23.6077,-46.501909999999995,AV ARQ VILANOVA ARTIGAS,nan,2017-02-04 00:50:00,4,nan,3,0,1,0,0,0,0,0,0,0,0,0,0,0,0,0,0,0,0
22944,D021700333,-23.56175,-46.51068,AV ARICANDUVA,nan,2017-02-21 19:40:00,2,nan,1,0,1,0,0,0,1,0,0,0,0,0,0,0,0,0,0,0,0
22945,D021700334,-23.62751,-46.6477,AV DOS BANDEIRANTES,nan,2017-02-12 11:20:00,2,nan,1,0,1,0,1,0,0,0,0,0,0,0,0,0,0,0,0,0,0
22946,D021700335,-23.553729999999998,-46.64882,AV NOVE DE JULHO,nan,2017-02-01 19:55:00,2,nan,1,0,2,0,0,0,0,0,0,0,0,0,0,0,0,0,0,0,0
22947,D021700336,-23.506120000000003,-46.52902,AV CANGAIBA,nan,2017-02-21 13:00:00,2,nan,2,0,1,1,0,0,0,0,0,0,1,0,0,1,0,0,0,0,0
22948,D021700337,-23.54062,-46.729890000000005,AV QUEIROZ FILHO,nan,2017-02-05 11:00:00,2,nan,1,0,0,0,0,0,0,1,0,0,0,0,0,0,0,0,0,0,0
22949,D021700338,-23.641460000000002,-46.736959999999996,AV GIOVANNI GRONCHI,AV CARLOS CALDEIRA FILHO,2017-02-04 12:00:00,2,nan,1,0,1,0,0,0,0,1,0,0,0,0,0,0,0,0,0,0,0
22950,D021700339,-23.53438,-46.46237,RUA LEOBERTO LEAL,nan,2017-02-03 10:10:00,2,nan,1,0,1,0,0,0,0,0,0,0,0,0,0,0,0,0,0,0,0
22951,D021700340,-23.49109,-46.65067,AV IMIRIM,nan,2017-02-02 18:47:00,4,nan,1,0,1,0,0,0,0,0,0,0,0,0,0,0,0,0,0,0,0
22952,D021700341,-23.59025,-46.629979999999996,RUA FRANCISCO CRUZ,nan,2017-02-18 01:06:00,4,nan,1,0,0,0,0,0,0,0,0,0,0,0,0,0,0,0,0,0,1
22953,D021700342,-23.55229,-46.646,RUA JOAO PASSALAQUA,RUA STO ANTONIO,2017-02-18 14:00:00,4,nan,0,1,0,0,0,0,0,0,0,0,0,0,0,0,0,0,0,0,1
22954,D021700343,-23.53383,-46.543820000000004,RUA JULIO COLACO,AV CD DE FRONTIN,2017-02-13 08:20:00,2,nan,1,0,1,0,0,0,0,1,0,0,0,0,0,0,0,0,0,0,0
22955,D021700344,-23.63358,-46.7336,RUA NELSON GAMA DE OLIVEIRA,nan,2017-02-18 10:56:00,2,nan,1,0,1,0,0,0,0,1,0,0,0,0,0,0,0,0,0,0,0
22956,D021700345,-23.7001,-46.77214,RUA VALENTIM CORREA PAIS,nan,2017-02-10 18:50:00,2,nan,1,0,1,0,0,0,0,1,0,0,0,0,0,0,0,0,0,0,0
22957,D021700346,-23.49673,-46.5765,AV CONCEICAO (ES.),nan,2017-02-08 13:30:00,2,nan,1,0,0,0,0,0,0,1,0,0,0,0,0,0,0,0,0,0,1
22958,D021700347,-23.51949,-46.51021,AV CALIM EID (PTE RASA),nan,2017-02-15 09:17:00,2,nan,1,0,1,0,0,0,0,0,0,0,0,0,0,0,0,0,0,0,0
22959,D021700348,-23.58496,-46.584959999999995,AV PROF LUIZ IGNACIO ANHAIA MELLO,nan,2017-02-05 13:20:00,2,nan,1,0,2,0,0,0,0,1,0,0,0,0,0,0,0,0,0,0,0
22960,D021700349,-23.826060000000002,-46.73214,AV SADAMU INOUE,nan,2017-02-26 12:34:00,2,nan,1,0,1,0,0,0,1,0,0,0,0,0,0,0,0,0,0,0,0
22961,D021700350,-23.52582,-46.62485,AV CRUZEIRO DO SUL,nan,2017-02-06 13:30:00,4,nan,1,0,0,0,0,0,0,1,0,0,0,0,0,0,0,0,0,0,0
22962,D021700351,-23.615920000000003,-46.702020000000005,RUA FRANCISCO TRAMONTANO,RUA LUIS GONZAGA DE AZEVEDO NETO,2017-02-07 16:00:00,2,nan,1,0,1,0,0,0,0,1,0,0,0,0,0,0,0,0,0,0,0
22963,D021700352,-23.48961,-46.717220000000005,AV PAULA FERREIRA,RUA FRANCISCO BRAGA,2017-02-10 09:00:00,2,nan,1,0,1,0,0,0,0,1,0,0,0,0,0,0,0,0,0,0,0
22964,D021700353,-23.531370000000003,-46.688559999999995,RUA RAUL POMPEIA,RUA CEL MELO DE OLIVEIRA,2017-02-21 08:20:00,2,nan,1,0,1,0,0,0,0,1,0,0,0,0,0,0,0,0,0,0,0
22965,D021700354,-23.55283,-46.6265,VIADUTO TRINTA E UM DE MARCO,nan,2017-02-06 16:12:00,4,nan,1,0,1,0,0,0,0,0,0,0,0,0,0,0,0,0,0,0,0
22966,D021700355,-23.609460000000002,-46.743790000000004,AV DR GUILHERME DUMONT VILARES,nan,2017-02-23 09:52:00,2,nan,1,0,0,0,0,0,0,1,0,0,0,0,0,0,0,0,0,0,0
22967,D021700356,-23.58578,-46.747009999999996,VIA RAPOSO TAVARES,nan,2017-02-03 23:43:00,2,nan,1,0,1,0,0,0,0,1,0,0,0,0,0,0,0,0,0,0,0
22968,D021700357,-23.58822,-46.736979999999996,AV MIN LAUDO FERREIRA DE CAMARGO,nan,2017-02-09 09:20:00,2,nan,1,0,1,0,0,0,0,1,0,0,0,0,0,0,0,0,0,0,0
22969,D021700358,-23.63249,-46.61742,AV DO CURSINO,nan,2017-02-10 22:56:00,2,nan,1,0,1,0,0,0,0,1,0,0,0,0,0,0,0,0,0,0,0
22970,D021700359,-23.48126,-46.574909999999996,RUA CARLOS DOS SANTOS,nan,2017-02-19 00:35:00,4,nan,1,0,0,0,0,0,0,1,0,0,0,0,0,0,0,0,0,0,0
22971,D021700360,-23.524729999999998,-46.64244,RUA GAL FLORES,RUA SOLON,2017-02-11 21:59:00,4,nan,1,0,0,0,0,0,0,1,0,0,0,0,0,0,0,0,0,0,0
22972,D021700361,-23.55228,-46.4448,AV PROF JOAO BATISTA CONTI,nan,2017-02-18 11:45:00,4,nan,0,1,0,0,0,0,1,0,0,0,0,0,0,0,0,0,0,0,0
22973,D021700362,-23.57139,-46.663340000000005,RUA ESTADOS UNIDOS,AV NOVE DE JULHO,2017-02-03 13:30:00,2,nan,1,0,1,1,0,0,0,1,0,0,0,0,0,0,0,0,0,0,0
22974,D021700363,-23.48505,-46.467890000000004,RUA DR ASSIS RIBEIRO,nan,2017-02-05 19:00:00,2,nan,2,0,0,0,0,0,0,1,0,0,0,0,0,0,0,0,0,0,0
22975,D021700364,-23.49618,-46.57562,PRACA JOAO DE OLIVEIRA,nan,2017-02-28 21:30:00,2,nan,1,0,2,0,0,0,0,0,0,0,0,0,0,0,0,0,0,0,0
22976,D021700365,-23.49333,-46.67183,RUA GAL MELO RESENDE,nan,2017-02-06 18:30:00,2,nan,1,0,0,0,0,0,0,0,0,1,0,0,0,0,0,0,0,0,0
22977,D021700366,-23.49875,-46.68875,RUA ANTONIO DE COUROS,RUA MANUEL CORREIA,2017-02-19 23:30:00,2,nan,1,0,2,0,0,0,0,0,0,0,0,0,0,0,0,0,0,0,0
22978,D021700367,-23.56353,-46.74259,RUA BALTAZAR RABELO,nan,2017-02-12 21:00:00,2,nan,1,0,2,0,0,0,0,0,0,0,0,0,0,0,0,0,0,0,0
22979,D021700368,-23.542379999999998,-46.48079,AV JOSE PINHEIRO BORGES,nan,2017-02-03 06:40:00,2,nan,1,0,1,1,0,0,0,0,0,0,0,0,0,0,0,0,0,0,0
22980,D021700369,-23.44443,-46.70762,RUA MONTE ALEGRE DO SUL,nan,2017-02-06 18:00:00,4,nan,0,1,0,0,0,0,0,1,0,0,0,0,0,0,0,0,0,0,0
22981,D021700370,-23.53195,-46.41503,AV NORDESTINA,nan,2017-02-28 20:20:00,2,nan,1,0,1,0,0,0,0,0,0,0,1,0,0,0,0,0,0,0,0
22982,D021700371,-23.54071,-46.57501,RUA MELO FREIRE,nan,2017-02-09 20:00:00,2,nan,1,0,0,0,0,0,0,0,0,0,1,0,0,0,0,0,0,0,0
22983,D021700372,-23.58766,-46.39638,RUA CRISTOVAO DE MOLINA,nan,2017-02-11 15:00:00,2,nan,1,0,1,0,0,0,0,1,0,0,0,0,0,0,0,0,0,0,0
22984,D021700373,-23.74178,-46.706720000000004,AV SEN TEOTONIO VILELA,nan,2017-02-13 19:00:00,2,nan,1,0,1,0,0,0,0,1,0,0,0,0,0,0,0,0,0,0,0
22985,D021700374,-23.519029999999997,-46.55826,RUA PAULO LORENZANI,RUA GIUSEPPE MARINO,2017-02-07 21:17:00,2,nan,1,0,1,0,0,0,0,1,0,0,0,0,0,0,0,0,0,0,0
22986,D021700375,-23.69255,-46.64389,RUA DO GUAICURI,nan,2017-02-05 07:00:00,2,nan,1,1,0,0,0,0,0,2,0,0,0,0,0,0,0,0,0,0,0
22987,D021700376,-23.56198,-46.63863,RUA S JOAQUIM,AV DA LIBERDADE,2017-02-09 08:45:00,2,nan,1,0,0,0,0,0,1,0,0,0,0,0,0,0,0,0,0,0,1
22988,D021700377,-23.65355,-46.77673,AV CARLOS LACERDA,nan,2017-02-14 22:00:00,2,nan,1,0,0,0,0,0,0,1,0,0,0,0,0,0,0,0,0,0,0
22989,D021700378,-23.44335,-46.7061,AV DEP CANTIDIO SAMPAIO,nan,2017-02-26 15:38:00,2,nan,1,1,0,0,0,0,0,1,0,0,0,0,0,0,0,0,0,0,0
22990,D021700379,-23.59124,-46.56825,AV JOSE DA NOBREGA BOTELHO,nan,2017-02-20 12:07:00,4,nan,1,0,0,0,0,0,0,1,0,0,0,0,0,0,0,0,0,0,0
22991,D021700380,-23.6321,-46.69324,RUA BELA VISTA,nan,2017-02-22 04:11:00,2,nan,1,0,1,0,0,0,0,0,0,0,0,0,0,0,0,0,0,0,0
22992,D021700381,-23.67122,-46.778290000000005,RUA DOS MERCANTEIS,nan,2017-02-14 14:20:00,2,nan,1,0,1,0,0,0,0,1,0,0,0,0,0,0,0,0,0,0,0
22993,D021700382,-23.58544,-46.69082,AV DAS NACOES UNIDAS,nan,2017-02-16 10:40:00,2,nan,1,0,1,0,0,0,0,1,0,0,0,0,0,0,0,0,0,0,0
22994,D021700383,-23.49879,-46.69774,AV ITABERABA,nan,2017-02-26 20:06:00,2,nan,1,0,2,1,0,0,0,0,0,0,0,0,0,0,0,0,0,0,0
22995,D021700384,-23.48294,-46.50405,VIA AIRTON SENNA DA SILVA,nan,2017-02-18 23:00:00,2,nan,0,1,0,0,0,0,0,1,0,0,0,0,0,0,0,0,0,0,0
22996,D021700385,-23.48677,-46.50659,VIA AIRTON SENNA DA SILVA,nan,2017-02-22 23:30:00,2,nan,4,0,2,0,0,0,0,0,0,0,0,0,0,0,0,0,0,0,0
22997,D021700386,-23.57584,-46.742129999999996,AV ENG HEITOR ANTONIO EIRAS GARCIA,nan,2017-02-10 08:30:00,2,nan,1,0,1,0,0,0,0,1,0,0,0,0,0,0,0,0,0,0,0
22998,D021700387,-23.71213,-46.65201,RUA SALVADOR DALI,nan,2017-02-11 00:06:00,2,nan,2,0,0,1,0,0,0,1,0,0,0,0,0,0,0,0,0,0,0
22999,D021700388,-23.477610000000002,-46.63281,AV ZUMKELLER,nan,2017-02-10 09:40:00,4,nan,1,0,0,0,0,0,0,1,0,0,0,0,0,0,0,0,0,0,0
23000,D021700389,-23.53182,-46.46929,AV CAITITU,nan,2017-02-12 18:30:00,2,nan,3,0,1,0,0,0,0,3,0,0,0,0,0,0,0,0,0,0,0
23001,D021700390,-23.59478,-46.44965,AV RAGUEB CHOHFI,nan,2017-02-11 11:00:00,2,nan,1,0,0,0,0,0,0,1,0,0,0,0,0,0,0,0,0,0,0
23002,D021700391,-23.49558,-46.571490000000004,AV MANUEL ANTONIO GONCALVES,nan,2017-02-02 09:49:00,2,nan,1,0,0,0,0,0,0,0,0,0,0,0,0,0,0,0,0,0,1
23003,D021700392,-23.55141,-46.41319,RUA SATURNINO PEREIRA,nan,2017-02-14 06:15:00,2,nan,1,0,0,0,0,0,0,0,0,0,1,0,0,0,0,0,0,0,0
23004,D021700393,-23.67575,-46.6988,AV DAS NACOES UNIDAS,nan,2017-02-14 14:15:00,2,nan,1,0,1,0,0,0,0,1,0,0,0,0,0,0,0,0,0,0,0
23005,D021700394,-23.52919,-46.5859,AV MARGINAL DO RIO TIETE,nan,2017-02-15 08:45:00,2,nan,1,0,1,0,0,0,0,1,0,0,0,0,0,0,0,0,0,0,0
23006,D021700395,-23.673170000000002,-46.743320000000004,ESTRADA M'BOI MIRIM,nan,2017-02-06 07:30:00,4,nan,1,0,0,0,0,0,0,0,0,0,1,0,0,0,0,0,0,0,0
23007,D021700396,-23.6327,-46.67293,RUA JOAQUIM NABUCO (STO AMARO),RUA TIBIRICA,2017-02-17 15:45:00,2,nan,1,0,1,0,0,0,0,1,0,0,0,0,0,0,0,0,0,0,0
23008,D021700397,-23.45798,-46.69601,RUA JORGE PALMIRO MERCADO,nan,2017-02-04 15:10:00,4,nan,1,0,0,0,0,0,0,1,0,0,0,0,0,0,0,0,0,0,0
23009,D021700398,-23.54441,-46.61779,AV RANGEL PESTANA,nan,2017-02-11 23:05:00,4,nan,1,0,0,0,0,0,0,0,0,0,0,0,0,1,0,0,0,0,0
23010,D021700399,-23.58638,-46.59725,VIADUTO GRANDE SAO PAULO,nan,2017-02-20 09:15:00,2,nan,1,0,3,1,0,0,0,0,0,0,0,0,0,0,0,0,0,0,0
23011,D021700400,-23.52328,-46.54566,PRACA DONA MICAELA VIEIRA,nan,2017-02-08 19:14:00,4,nan,1,0,1,0,0,0,0,0,0,0,0,0,0,0,0,0,0,0,0
23012,D021700401,-23.591739999999998,-46.68755,TUNEL SEBASTIAO CAMARGO,nan,2017-02-16 11:21:00,2,nan,1,0,1,0,0,0,0,1,0,0,0,0,0,0,0,0,0,0,0
23013,D021700402,-23.61338,-46.7145,RUA DR FLAVIO AMERICO MAURANO,nan,2017-02-03 16:45:00,2,nan,1,0,0,0,0,0,0,1,0,0,0,0,0,0,0,0,0,0,1
23014,D021700403,-23.51588,-46.60427,AV GUILHERME,RUA JOSE BERNARDO PINTO,2017-02-09 12:00:00,2,nan,1,0,1,0,0,0,0,1,0,0,0,0,0,0,0,0,0,0,0
23015,D021700404,-23.61797,-46.66002,AV DOS BANDEIRANTES,nan,2017-02-10 18:30:00,2,nan,1,0,0,0,0,0,0,1,0,0,0,0,0,0,0,0,0,0,0
23016,D021700405,-23.64145,-46.73747,AV CARLOS CALDEIRA FILHO,nan,2017-02-15 06:10:00,2,nan,1,0,1,0,0,0,0,1,0,0,0,0,0,0,0,0,0,0,0
23017,D021700406,-23.48538,-46.64115,RUA CONS MOREIRA DE BARROS,nan,2017-02-06 20:00:00,2,nan,1,0,1,0,0,0,0,1,0,0,0,0,0,0,0,0,0,0,0
23018,D021700407,-23.72109,-46.68905,AV LOURENCO CABREIRA,nan,2017-02-15 10:47:00,2,nan,1,0,1,0,0,0,0,1,0,0,0,0,0,0,0,0,0,0,0
23019,D021700408,-23.71388,-46.6985,AV SEN TEOTONIO VILELA,RUA DR PAULO DE BARROS WHITAKER,2017-02-14 18:15:00,2,nan,1,0,1,0,0,0,0,1,0,0,0,0,0,0,0,0,0,0,0
23020,D021700409,-23.55659,-46.624590000000005,RUA LEOPOLDO MIGUEZ,RUA DR PEDRO SEVERIANO,2017-02-10 17:20:00,2,nan,1,0,1,0,0,0,0,1,0,0,0,0,0,0,0,0,0,0,0
23021,D021700410,-23.513,-46.57591,RUA CIRO SOARES DE ALMEIDA,nan,2017-02-12 18:00:00,2,nan,1,0,1,0,0,0,0,0,0,0,0,0,0,0,0,0,0,0,0
23022,D021700411,-23.52507,-46.74135,AV DR GASTAO VIDIGAL,nan,2017-02-13 15:30:00,4,nan,1,0,0,0,0,0,0,0,0,0,0,0,0,1,0,0,0,0,0
23023,D021700412,-23.4715,-46.7059,AV ELISIO TEIXEIRA LEITE,nan,2017-02-06 12:50:00,2,nan,1,0,1,0,0,0,0,1,0,0,0,0,0,0,0,0,0,0,0
23024,D021700414,-23.52729,-46.66383,RUA DR ALFREDO DE CASTRO,nan,2017-02-08 19:20:00,2,nan,1,0,1,0,0,0,0,1,0,0,0,0,0,0,0,0,0,0,0
23025,D021700415,-23.462329999999998,-46.58226,AV ANTONIO CESAR NETO,nan,2017-02-01 17:40:00,2,nan,1,0,1,0,0,0,0,0,0,0,1,0,0,0,0,0,0,0,0
23026,D021700416,-23.53708,-46.73253,AV DR GASTAO VIDIGAL,nan,2017-02-14 22:15:00,2,nan,1,0,1,0,0,0,0,1,0,0,0,0,0,0,0,0,0,0,0
23027,D021700417,-23.51827,-46.72497,VIADUTO DOMINGOS DE MORAES,nan,2017-02-06 15:00:00,2,nan,1,0,1,0,0,0,0,1,0,0,0,0,0,0,0,0,0,0,0
23028,D021700418,-23.45748,-46.64885,AV STA INES,nan,2017-02-22 07:25:00,2,nan,1,0,1,0,0,0,0,1,0,0,0,0,0,0,0,0,0,0,0
23029,D021700419,-23.49116,-46.69947,AV MIN PETRONIO PORTELA,nan,2017-02-04 16:30:00,2,nan,1,0,1,0,0,0,0,1,0,0,0,0,0,0,0,0,0,0,0
23030,D021700420,-23.55245,-46.624559999999995,AV ALCANTARA MACHADO,nan,2017-02-10 14:30:00,2,nan,1,0,0,0,0,0,0,1,0,0,0,0,0,0,0,0,0,0,0
23031,D021700421,-23.57381,-46.70882,RUA SAPETUBA,nan,2017-02-19 17:00:00,2,nan,1,0,2,0,0,0,0,0,0,0,0,0,0,0,0,0,0,0,0
23032,D021700422,-23.75444,-46.6767,RUA VERBASCO,nan,2017-02-11 03:53:00,2,nan,2,0,0,0,0,0,0,2,0,0,0,0,0,0,0,0,0,0,0
23033,D021700423,-23.59277,-46.75223,RUA CARLANTONIO CARLONE,nan,2017-02-28 23:30:00,4,nan,1,0,0,0,0,0,0,1,0,0,0,0,0,0,0,0,0,0,0
23034,D021700424,-23.770220000000002,-46.6771,RUA RUFINO ZADO,nan,2017-02-10 16:50:00,2,nan,1,0,1,0,0,0,0,1,0,0,0,0,0,0,0,0,0,0,0
23035,D021700425,-23.5366,-46.47169,AV DOS AGAPANTOS,nan,2017-02-10 16:47:00,2,nan,1,0,1,0,0,0,0,1,0,0,0,0,0,0,0,0,0,0,0
23036,D021700426,-23.74145,-46.66734,RUA GUIDO LACCETTI,nan,2017-02-15 10:18:00,4,nan,2,0,0,0,0,0,0,0,0,0,0,0,0,1,0,0,0,0,0
23037,D021700427,-23.522070000000003,-46.60249,AV MORVAN DIAS DE FIGUEIREDO,nan,2017-02-21 11:00:00,2,nan,11,0,0,0,0,0,0,0,0,0,1,0,0,0,0,0,0,0,0
23038,D021700428,-23.537,-46.5189,AV BERNARDINO BRITO FONSECA DE CA,nan,2017-02-17 18:37:00,4,nan,2,0,0,0,0,0,0,1,0,0,0,0,0,0,0,0,0,0,0
23039,D021700429,-23.520220000000002,-46.46439,RUA LARANJA DE NATAL,AV AUGUSTO ANTUNES,2017-02-18 12:30:00,2,nan,1,0,0,1,0,0,0,1,0,0,0,0,0,0,0,0,0,0,0
23040,D021700430,-23.5421,-46.60672,RUA BRESSER,nan,2017-02-02 00:20:00,4,nan,2,0,0,1,0,0,0,0,0,0,0,0,0,0,0,0,0,0,0
23041,D021700431,-23.63447,-46.47315,RUA FRANCISCO AGUIAR DE BARROS,RUA JOAO ANTUNES MACIEL,2017-02-03 17:40:00,2,nan,1,0,1,0,0,0,0,1,0,0,0,0,0,0,0,0,0,0,0
23042,D021700432,-23.59481,-46.43947,AV RAGUEB CHOHFI,nan,2017-02-06 04:14:00,2,nan,0,1,0,0,0,0,0,1,0,0,0,0,0,0,0,0,0,0,0
23043,D021700433,-23.53731,-46.47059,AV CAMPANELLA,nan,2017-02-09 10:10:00,4,nan,1,0,1,0,0,0,0,0,0,0,0,0,0,0,0,0,0,0,0
23044,D021700434,-23.52897,-46.51443,AV ANTONIO ESTEVAO DE CARVALHO,nan,2017-02-20 05:00:00,2,nan,1,0,1,0,0,0,0,1,0,0,0,0,0,0,0,0,0,0,0
23045,D021700435,-23.58081,-46.658390000000004,AV PEDRO ALVARES CABRAL,nan,2017-02-07 10:00:00,4,nan,1,0,1,0,0,0,0,0,0,0,0,0,0,0,0,0,0,0,0
23046,D021700436,-23.59027,-46.51958,AV GAL PORFIRIO DA PAZ,ALAMEDA DOS CONTADORES,2017-02-12 08:00:00,2,nan,2,0,0,0,0,0,0,0,0,0,1,0,0,0,0,0,0,0,0
23047,D021700437,-23.57701,-46.64071,RUA CORREIA DIAS,nan,2017-02-23 07:02:00,2,nan,1,0,2,0,0,0,0,0,0,0,0,0,0,0,0,0,0,0,0
23048,D021700438,-23.55333,-46.48431,AV SILVIO TORRES,nan,2017-02-14 19:30:00,2,nan,1,0,0,0,0,0,0,2,0,0,0,0,0,0,0,0,0,0,0
23049,D021700439,-23.47458,-46.602579999999996,AV MAZZEI,nan,2017-02-09 17:20:00,2,nan,1,0,0,0,0,0,0,0,0,0,1,0,0,0,0,0,0,0,0
23050,D021700440,-23.73542,-46.70218,RUA ALVARES CORREIA,RUA RUBEM SOUTO DE ARAUJO,2017-02-02 18:45:00,2,nan,1,0,1,0,0,0,0,1,0,0,0,0,0,0,0,0,0,0,0
23051,D021700441,-23.53878,-46.70756,RUA CERRO CORA,RUA AECRI,2017-02-23 18:49:00,2,nan,1,0,1,0,0,0,0,1,0,0,0,0,0,0,0,0,0,0,0
23052,D021700442,-23.51995,-46.601290000000006,RUA EUGENIO DE FREITAS,nan,2017-02-24 16:57:00,4,nan,1,0,0,1,0,0,0,0,0,0,0,0,0,0,0,0,0,0,0
23053,D021700443,-23.54583,-46.64736,VEL PRES ARTHUR DA COSTA E SILVA,nan,2017-02-20 10:45:00,2,nan,1,0,0,1,0,0,0,1,0,0,0,0,0,0,0,0,0,0,0
23054,D021700444,-23.63129,-46.64147,AV DR HUGO BEOLCHI,nan,2017-02-14 15:30:00,2,nan,1,0,1,0,0,0,0,1,0,0,0,0,0,0,0,0,0,0,0
23055,D021700445,-23.534329999999997,-46.625,AV DO ESTADO,RUA JOAO TEODORO,2017-02-01 11:40:00,4,nan,1,0,0,0,0,0,0,1,0,0,0,0,0,0,0,0,0,0,0
23056,D021700446,-23.524520000000003,-46.73692,AV IMP LEOPOLDINA,AV MOFARREJ,2017-02-07 23:10:00,4,nan,1,0,1,0,0,0,0,0,0,0,0,0,0,0,0,0,0,0,0
23057,D021700447,-23.58778,-46.483109999999996,RUA CRISTOVAO DE OLIVEIRA,nan,2017-02-02 19:40:00,2,nan,1,0,0,1,0,0,0,1,0,0,0,0,0,0,0,0,0,0,0
23058,D021700448,-23.53582,-46.52601,RUA DONA MATILDE,RUA ANTONIO DE SOUZA CAMPOS,2017-02-22 21:00:00,2,nan,1,0,1,0,0,0,0,1,0,0,0,0,0,0,0,0,0,0,0
23059,D021700449,-23.45779,-46.57128,VIA FERNAO DIAS,nan,2017-02-04 07:40:00,4,nan,0,1,1,0,0,0,0,0,0,0,0,0,0,0,0,0,0,0,0
23060,D021700450,-23.58969,-46.64049,RUA DR ALVARO ALVIM,nan,2017-02-24 05:50:00,4,nan,1,0,0,0,0,0,0,0,0,0,1,0,0,0,0,0,0,0,0
23061,D021700451,-23.64994,-46.75675,ESTRADA DE ITAPECERICA,nan,2017-02-14 17:45:00,2,nan,1,0,1,0,0,0,0,1,0,0,0,0,0,0,0,0,0,0,0
23062,D021700452,-23.49434,-46.66507,RUA ANTONIO VERA CRUZ,nan,2017-02-28 18:30:00,4,nan,1,0,0,0,0,0,0,0,0,0,0,0,0,0,0,0,0,0,1
23063,D021700453,-23.637420000000002,-46.60354,RUA ANTONIO MARIA BONINCINI,nan,2017-02-13 19:00:00,2,nan,2,0,0,0,0,0,0,1,0,0,0,0,0,0,0,0,0,0,0
23064,D021700454,-23.559060000000002,-46.62911,RUA JUNQUEIRA FREIRE,nan,2017-02-05 15:30:00,2,nan,1,0,1,0,0,0,0,0,0,0,0,0,0,0,0,0,0,0,0
23065,D021700455,-23.54235,-46.73178,AV QUEIROZ FILHO,nan,2017-02-06 18:10:00,2,nan,1,0,1,0,0,0,0,1,0,0,0,0,0,0,0,0,0,0,0
23066,D021700456,-23.553810000000002,-46.75608,AV CORIFEU DE AZEVEDO MARQUES,nan,2017-02-02 09:20:00,2,nan,0,1,1,0,0,0,0,0,0,0,0,0,0,0,0,0,0,0,0
23067,D021700457,-23.65353,-46.612559999999995,AV DOS OURIVES,nan,2017-02-04 08:43:00,2,nan,1,0,1,0,0,0,0,1,0,0,0,0,0,0,0,0,0,0,0
23068,D021700458,-23.62631,-46.61871,AV DO CURSINO,nan,2017-02-26 03:16:00,2,nan,0,1,1,0,0,0,0,1,0,0,0,0,0,0,0,0,0,0,0
23069,D021700459,-23.51834,-46.59035,AV GUILHERME COTCHING,nan,2017-02-03 16:56:00,4,nan,1,0,1,0,0,0,0,0,0,0,0,0,0,0,0,0,0,0,0
23070,D021700460,-23.59296,-46.585370000000005,AV DR FRANCISCO MESQUITA,nan,2017-02-08 08:05:00,2,nan,1,0,1,0,0,0,0,1,0,0,0,0,0,0,0,0,0,0,0
23071,D021700461,-23.56586,-46.691359999999996,RUA CUNHA GAGO,RUA TEODORO SAMPAIO,2017-02-11 12:10:00,4,nan,1,0,0,0,0,0,0,0,0,0,1,0,0,0,0,0,0,0,0
23072,D021700462,-23.71442,-46.65108,RUA INDEPENDENCIA,nan,2017-02-06 07:20:00,4,nan,1,0,1,0,0,0,0,0,0,0,0,0,0,0,0,0,0,0,0
23073,D021700463,-23.5334,-46.74778,CV TREVO DE TRINTA E DOIS,nan,2017-02-19 00:55:00,2,nan,2,0,0,1,0,0,0,1,0,0,0,0,0,0,0,0,0,0,0
23074,D021700464,-23.54166,-46.62911,AV DO ESTADO,nan,2017-02-11 08:52:00,4,nan,1,0,0,0,0,0,0,1,0,0,0,0,0,0,0,0,0,0,0
23075,D021700465,-23.554479999999998,-46.63082,RUA CD DE SARZEDAS,nan,2017-02-21 19:10:00,4,nan,1,0,1,0,0,0,0,0,0,0,0,0,0,0,0,0,0,0,0
23076,D021700466,-23.65542,-46.69307,AV WASHINGTON LUIS,nan,2017-02-24 20:40:00,2,nan,1,0,1,0,0,0,0,1,0,0,0,0,0,0,0,0,0,0,0
23077,D021700467,-23.52252,-46.596270000000004,AV NADIR DIAS DE FIGUEIREDO,nan,2017-02-16 20:40:00,2,nan,2,0,0,0,0,0,0,1,0,0,0,0,0,1,0,0,0,0,0
23078,D021700468,-23.537129999999998,-46.612359999999995,RUA ALM BARROSO,RUA MENDES JUNIOR,2017-02-14 11:10:00,2,nan,1,0,0,0,0,0,0,0,0,1,0,0,0,1,0,0,0,0,0
23079,D021700469,-23.6416,-46.67242,AV WASHINGTON LUIS,nan,2017-02-06 06:40:00,2,nan,1,0,0,0,0,0,0,1,0,0,0,0,0,0,0,0,0,0,0
23080,D021700470,-23.6125,-46.493759999999995,AV SAPOPEMBA,nan,2017-02-09 18:11:00,2,nan,1,0,1,1,0,0,0,0,0,0,0,0,0,0,0,0,0,0,0
23081,D021700471,-23.54334,-46.68489,RUA HAVAI,nan,2017-02-24 18:00:00,2,nan,1,0,1,0,0,0,0,1,0,0,0,0,0,0,0,0,0,0,0
23082,D021700472,-23.55224,-46.41388,RUA SATURNINO PEREIRA,nan,2017-02-10 06:55:00,2,nan,1,0,1,0,0,0,1,0,0,0,0,0,0,0,0,0,0,0,0
23083,D021700473,-23.40984,-46.757870000000004,RUA MOGEIRO,nan,2017-02-18 18:00:00,2,nan,3,0,0,0,0,0,0,0,0,0,1,0,0,0,0,0,0,0,0
23084,D021700474,-23.61883,-46.73209,AV GIOVANNI GRONCHI,nan,2017-02-27 23:40:00,2,nan,2,0,1,0,0,0,0,1,0,0,0,0,0,0,0,0,0,0,0
23085,D021700475,-23.487,-46.46625,RUA DR ASSIS RIBEIRO,RUA RODEIRO,2017-02-18 02:20:00,2,nan,2,0,2,0,0,0,0,0,0,0,0,0,0,0,0,0,0,0,0
23086,D021700476,-23.47431,-46.66741,AV PARADA PINTO,AV ITABERABA,2017-02-15 08:00:00,2,nan,1,0,1,0,0,0,0,1,0,0,0,0,0,0,0,0,0,0,0
23087,D021700477,-23.49452,-46.4164,AV MAL TITO,nan,2017-02-26 19:00:00,2,nan,1,0,1,0,0,0,1,0,0,0,0,0,0,0,0,0,0,0,0
23088,D021700478,-23.56735,-46.67047,RUA COLOMBIA,nan,2017-02-03 20:58:00,2,nan,1,0,1,0,0,0,0,1,0,0,0,0,0,0,0,0,0,0,0
23089,D021700479,-23.5036,-46.70308,RUA LAUDELINO FREIRE,RUA MANUEL DE SOUZA MOREIRA,2017-02-03 14:40:00,2,nan,1,0,0,1,0,0,0,1,0,0,0,0,0,0,0,0,0,0,0
23090,D021700480,-23.52135,-46.73217,RUA GUAIPA,RUA BELA NAPOLES,2017-02-04 23:30:00,2,nan,1,0,1,0,0,0,0,1,0,0,0,0,0,0,0,0,0,0,0
23091,D021700481,-23.68751,-46.64263,AV ANGELO CRISTIANINI,nan,2017-02-17 19:59:00,4,nan,1,0,1,0,0,0,0,0,0,0,0,0,0,0,0,0,0,0,0
23092,D021700482,-23.57471,-46.6237,AV LINS DE VASCONCELOS,nan,2017-02-14 07:00:00,2,nan,2,0,0,0,0,0,0,1,0,0,0,0,0,0,0,0,0,0,0
23093,D021700483,-23.54052,-46.550959999999996,AV CONS CARRAO,RUA SERRA DE BOTUCATU,2017-02-04 08:45:00,2,nan,1,0,0,0,0,0,0,1,0,0,0,0,0,0,0,0,0,0,1
23094,D021700484,-23.45684,-46.63044,RUA PROF ANTONIO CASTELAR DE FRANCESCHI,nan,2017-02-04 16:18:00,2,nan,1,0,1,0,0,0,0,1,0,0,0,0,0,0,0,0,0,0,0
23095,D021700485,-23.590339999999998,-46.55273,AV DO ORATORIO,nan,2017-02-02 15:20:00,2,nan,1,0,2,0,0,0,0,0,0,0,0,0,0,0,0,0,0,0,0
23096,D021700486,-23.633960000000002,-46.61676,AV DO CURSINO,nan,2017-02-08 12:36:00,2,nan,1,0,1,0,0,0,0,1,0,0,0,0,0,0,0,0,0,0,0
23097,D021700487,-23.560879999999997,-46.585029999999996,RUA DA MOOCA,RUA BARRETOS,2017-02-18 19:59:00,4,nan,1,0,1,0,0,0,0,0,0,0,0,0,0,0,0,0,0,0,0
23098,D021700488,,,VIA RODOANEL MARIO COVAS,nan,2017-02-21 00:40:00,2,nan,1,0,0,1,0,0,0,0,0,0,0,0,0,2,0,0,0,0,0
23099,D021700489,-23.5158,-46.657990000000005,AV OTAVIANO ALVES DE LIMA,nan,2017-02-18 20:30:00,2,nan,2,0,1,0,0,0,0,1,0,0,0,0,0,0,0,0,0,0,0
23100,D021700490,-23.45703,-46.6588,RUA ANFITRIAO,RUA DOM AQUINO,2017-02-09 13:30:00,2,nan,1,0,1,0,0,0,0,1,0,0,0,0,0,0,0,0,0,0,0
23101,D021700491,-23.563000000000002,-46.429759999999995,RUA PROF HASEGAWA,nan,2017-02-06 12:40:00,2,nan,1,0,0,0,0,0,0,1,0,0,0,0,0,0,0,0,0,0,0
23102,D021700492,-23.517120000000002,-46.67937,AV MARQ DE SAO VICENTE,nan,2017-02-23 14:05:00,4,nan,0,1,0,0,0,0,0,0,0,0,1,0,0,0,0,0,0,0,0
23103,D021700493,-23.60136,-46.59959,AV ALM DELAMARE,nan,2017-02-05 04:39:00,2,nan,1,0,1,0,0,0,0,0,0,0,0,0,0,0,0,0,0,0,0
23104,D021700494,-23.57104,-46.505140000000004,AV ARICANDUVA,nan,2017-02-02 18:13:00,2,nan,1,0,1,0,0,0,0,1,0,0,0,0,0,0,0,0,0,0,0
23105,D021700495,-23.55382,-46.4177,RUA DR RODRIGUES DE ALMEIDA,nan,2017-02-02 23:06:00,4,nan,2,0,1,0,0,0,0,0,0,0,0,0,0,0,0,0,0,0,0
23106,D021700496,-23.57487,-46.54143,AV RENATA,AV VER ABEL FERREIRA,2017-02-03 14:10:00,4,nan,1,0,1,0,0,0,0,0,0,0,0,0,0,0,0,0,0,0,0
23107,D021700497,-23.40416,-46.76358,RUA MOGEIRO,nan,2017-02-23 11:00:00,2,nan,1,0,0,0,0,0,0,0,0,0,1,0,0,0,0,0,0,0,0
23108,D021700498,-23.75471,-46.6678,RUA MANUEL DA COSTA DUARTE,nan,2017-02-03 17:00:00,4,nan,1,0,0,1,0,0,0,0,0,0,0,0,0,0,0,0,0,0,0
23109,D021700499,-23.52936,-46.651579999999996,ALAMEDA BR DE LIMEIRA,nan,2017-02-19 22:15:00,2,nan,1,0,1,0,0,0,0,1,0,0,0,0,0,0,0,0,0,0,0
23110,D021700500,-23.5698,-46.761379999999996,RUA SEBASTIANO MAINARDI,nan,2017-02-12 17:35:00,2,nan,1,0,1,0,0,0,0,1,0,0,0,0,0,0,0,0,0,0,0
23111,D021700501,-23.45644,-46.686009999999996,RUA CLARA NUNES,nan,2017-02-07 22:12:00,4,nan,1,0,0,0,0,0,0,0,0,0,0,0,0,0,0,0,0,0,1
23112,D021700502,-23.603260000000002,-46.60474,RUA DR AUDISIO DE ALENCAR,nan,2017-02-16 17:45:00,2,nan,1,0,1,0,0,0,0,1,0,0,0,0,0,0,0,0,0,0,0
23113,D021700503,-23.55276,-46.662,AV ANGELICA,nan,2017-02-16 18:20:00,2,nan,1,0,1,0,0,0,0,1,0,0,0,0,0,0,0,0,0,0,0
23114,D021700504,-23.53831,-46.52864,RUA JOSE MASCARENHAS,nan,2017-02-15 22:30:00,2,nan,1,0,1,0,0,0,0,1,0,0,0,0,0,0,0,0,0,0,0
23115,D021700505,-23.64488,-46.74495,ESTRADA DE ITAPECERICA,nan,2017-02-03 00:20:00,2,nan,2,0,1,0,0,0,0,1,0,0,0,0,0,0,0,0,0,0,0
23116,D021700506,-23.677970000000002,-46.63054,RUA DELFIM GUEDES,nan,2017-02-18 11:08:00,2,nan,1,0,1,0,0,0,0,1,0,0,0,0,0,0,0,0,0,0,0
23117,D021700507,-23.65792,-46.63658,AV ENG ARMANDO DE ARRUDA PEREIRA,nan,2017-02-01 09:20:00,2,nan,1,0,0,0,0,0,0,0,0,0,1,0,0,0,0,0,0,0,0
23118,D021700508,-23.60081,-46.46702,RUA FORTE DE ARAXA,AV FORTE DO LEME,2017-02-01 13:55:00,2,nan,1,0,2,0,0,0,0,0,0,0,0,0,0,0,0,0,0,0,0
23119,D021700509,-23.48714,-46.658640000000005,RUA EPAMINONDAS MELO DO AMARAL,nan,2017-02-05 17:22:00,2,nan,3,0,0,1,0,0,0,1,0,0,0,0,0,0,0,0,0,0,0
23120,D021700510,-23.644370000000002,-46.78246,RUA JOSE ANTEQUERA,nan,2017-02-11 21:50:00,2,nan,3,0,1,1,0,0,0,0,0,0,0,0,0,0,0,0,0,0,0
23121,D021700511,-23.5748,-46.665420000000005,AV BRASIL,nan,2017-02-11 20:20:00,2,nan,1,0,1,0,0,0,0,1,0,0,0,0,0,0,0,0,0,0,0
23122,D021700512,-23.6522,-46.600590000000004,RUA GIOVANNI DA CONEGLIANO,nan,2017-02-11 20:10:00,2,nan,1,0,1,0,0,0,0,1,0,0,0,0,0,0,0,0,0,0,0
23123,D021700513,-23.49401,-46.62231,RUA DR ZUQUIM,nan,2017-02-20 19:30:00,2,nan,1,0,1,0,0,0,0,1,0,0,0,0,0,0,0,0,0,0,0
23124,D021700514,-23.52467,-46.60151,AV ASSIS CHATEAUBRIAND,nan,2017-02-06 09:30:00,2,nan,1,0,1,1,0,0,0,1,0,0,0,0,0,0,0,0,0,0,0
23125,D021700515,-23.501620000000003,-46.44301,RUA MARIO GRACCHO,nan,2017-02-25 09:10:00,2,nan,2,0,0,1,0,0,0,0,0,0,0,0,0,0,0,0,0,0,0
23126,D021700516,-23.668779999999998,-46.65166,AV CUPECE,nan,2017-02-20 07:45:00,2,nan,1,0,1,0,0,0,0,1,0,0,0,0,0,0,0,0,0,0,0
23127,D021700517,-23.620160000000002,-46.48408,AV TTE LAURO SODRE,nan,2017-02-18 22:45:00,2,nan,1,0,1,0,0,0,0,0,0,0,0,0,0,0,0,0,0,0,0
23128,D021700518,-23.54053,-46.60544,RUA COIMBRA,nan,2017-02-08 18:30:00,4,nan,1,0,0,0,0,0,0,0,0,0,0,0,0,1,0,0,0,0,0
23129,D021700519,-23.53592,-46.63363,AV PRESTES MAIA,nan,2017-02-18 06:30:00,4,nan,1,0,0,0,0,0,0,1,0,0,0,0,0,0,0,0,0,0,0
23130,D021700520,-23.5037,-46.62591,RUA VOLUNTARIOS DA PATRIA,nan,2017-02-08 05:47:00,2,nan,1,0,1,0,0,0,0,0,0,0,1,0,0,0,0,0,0,0,0
23131,D021700521,-23.631079999999997,-46.68418,AV PROF VICENTE RAO,nan,2017-02-21 20:00:00,2,nan,1,0,0,0,0,0,1,1,0,0,0,0,0,0,0,0,0,0,0
23132,D021700522,-23.50923,-46.69064,AV EMB MACEDO SOARES,nan,2017-02-05 07:50:00,2,nan,2,0,0,0,0,0,0,1,0,0,0,0,0,0,0,0,0,0,0
23133,D021700523,-23.63607,-46.75076,RUA CONSTANTINO DE OLIVEIRA LEDO,nan,2017-02-28 16:31:00,2,nan,2,0,1,0,0,0,0,1,0,0,0,0,0,0,0,0,0,0,0
23134,D021700524,-23.626920000000002,-46.64477,AV INDIANOPOLIS,nan,2017-02-05 10:35:00,2,nan,1,0,0,0,0,0,0,1,0,0,0,0,0,0,0,0,0,0,0
23135,D021700525,-23.47211,-46.72484,RUA COMEN FEIZ ZARZUR,nan,2017-02-25 23:30:00,2,nan,1,0,2,0,0,0,0,0,0,0,0,0,0,0,0,0,0,0,0
23136,D021700526,-23.64546,-46.76767,RUA MONFORTE DE LEMOS,nan,2017-02-25 03:00:00,2,nan,1,0,0,0,0,0,0,1,0,0,0,0,0,0,0,0,0,0,0
23137,D021700527,-23.57863,-46.622859999999996,RUA CEL DIOGO,nan,2017-02-11 19:26:00,2,nan,2,0,2,0,0,0,0,0,0,0,0,0,0,0,0,0,0,0,0
23138,D021700528,-23.57241,-46.70224,AV EUSEBIO MATOSO,nan,2017-02-18 18:00:00,2,nan,1,0,0,0,0,0,0,0,0,0,1,0,0,0,0,0,0,0,0
23139,D021700529,-23.54445,-46.69038,AV POMPEIA,nan,2017-02-11 16:40:00,2,nan,1,0,1,0,0,0,0,1,0,0,0,0,0,0,0,0,0,0,0
23140,D021700530,-23.48001,-46.56297,RUA LILIENTAL,RUA BASILIO ALVES MORANGO,2017-02-13 17:00:00,2,nan,1,0,1,0,0,0,0,1,0,0,0,0,0,0,0,0,0,0,0
23141,D021700531,-23.554470000000002,-46.442029999999995,RUA JARDIM TAMOIO,nan,2017-02-12 20:13:00,4,nan,1,0,1,0,0,0,0,0,0,0,0,0,0,0,0,0,0,0,0
23142,D021700532,-23.56924,-46.74214,AV CORIFEU DE AZEVEDO MARQUES,nan,2017-02-04 12:00:00,2,nan,1,0,1,0,0,0,0,1,0,0,0,0,0,0,0,0,0,0,0
23143,D021700533,-23.57305,-46.65529,AV BRIG LUIS ANTONIO,nan,2017-02-16 11:36:00,4,nan,1,0,0,1,0,0,0,0,0,0,0,0,0,0,0,0,0,0,0
23144,D021700534,-23.61927,-46.682390000000005,AV SANTO AMARO,AV JORN ROBERTO MARINHO,2017-02-01 01:55:00,2,nan,1,0,0,1,0,0,0,1,0,0,0,0,0,0,0,0,0,0,0
23145,D021700535,-23.57245,-46.505359999999996,AV RIO DAS PEDRAS,nan,2017-02-07 23:43:00,2,nan,1,0,1,0,0,0,0,1,0,0,0,0,0,0,0,0,0,0,0
23146,D021700536,-23.60215,-46.541990000000006,RUA ANTONIO MARQUES JULIAO,nan,2017-02-09 15:33:00,2,nan,1,0,1,0,0,0,0,1,0,0,0,0,0,0,0,0,0,0,0
23147,D021700537,-23.5892,-46.67634,AV PRES JUSCELINO KUBITSCHEK,RUA JOAO CACHOEIRA,2017-02-21 16:00:00,2,nan,1,0,1,0,0,0,0,1,0,0,0,0,0,0,0,0,0,0,0
23148,D021700538,-23.64271,-46.7652,ESTRADA DO CAMPO LIMPO,nan,2017-02-21 17:20:00,2,nan,1,0,0,0,0,0,0,1,0,0,0,0,0,0,0,0,0,0,1
23149,D021700539,-23.69019,-46.77993,RUA ORLANDO DE ARAUJO BRAGA,nan,2017-02-19 02:00:00,2,nan,0,1,0,0,0,0,0,1,0,0,0,0,0,0,0,0,0,0,0
23150,D021700540,-23.457160000000002,-46.602140000000006,AV CEL SEZEFREDO FAGUNDES,nan,2017-02-16 08:27:00,2,nan,1,0,1,0,0,0,0,1,0,0,0,0,0,0,0,0,0,0,0
23151,D021700541,-23.57613,-46.65797,AV BRIG LUIS ANTONIO,nan,2017-02-06 06:52:00,4,nan,1,0,0,0,0,0,0,1,0,0,0,0,0,0,0,0,0,0,0
23152,D021700542,-23.61038,-46.452420000000004,RUA MADUREIRA CALHEIROS,nan,2017-02-11 00:30:00,2,nan,1,0,1,0,0,0,0,1,0,0,0,0,0,0,0,0,0,0,0
23153,D021700543,-23.5865,-46.72246,AV PROF FRANCISCO MORATO,nan,2017-02-01 08:48:00,4,nan,1,0,0,0,0,0,0,1,0,0,0,0,0,0,0,0,0,0,0
23154,D021700544,-23.67419,-46.69834,RUA GALENO DE CASTRO,nan,2017-02-06 14:00:00,2,nan,1,0,1,0,0,0,0,1,0,0,0,0,0,0,0,0,0,0,0
23155,D021700545,-23.5421,-46.474959999999996,AV JOSE PINHEIRO BORGES,nan,2017-02-09 09:01:00,2,nan,2,0,0,0,0,0,0,2,0,0,0,0,0,0,0,0,0,0,0
23156,D021700546,-23.60864,-46.49078,RUA MANUEL QUIRINO DE MATTOS,nan,2017-02-18 04:50:00,2,nan,2,0,1,0,0,0,0,0,0,0,0,0,0,0,0,0,0,0,0
23157,D021700547,-23.52672,-46.67286,VIADUTO ANTARTICA,nan,2017-02-10 18:50:00,2,nan,1,0,1,0,0,0,0,1,0,0,0,0,0,0,0,0,0,0,0
23158,D021700548,-23.45779,-46.57117,VIA FERNAO DIAS,nan,2017-02-12 03:30:00,2,nan,0,1,1,0,0,0,0,0,0,0,0,0,0,0,0,0,0,0,0
23159,D021700549,-23.68589,-46.8013,ESTRADA DE ITAPECERICA,nan,2017-02-21 19:41:00,2,nan,1,0,1,0,0,0,0,1,0,0,0,0,0,0,0,0,0,0,0
23160,D021700550,-23.49225,-46.64973,AV IMIRIM,nan,2017-02-03 19:39:00,2,nan,2,0,1,0,0,0,0,1,0,0,0,0,0,0,0,0,0,0,0
23161,D021700551,-23.58754,-46.724940000000004,AV PROF FRANCISCO MORATO,nan,2017-02-05 16:40:00,4,nan,1,0,0,0,0,0,0,1,0,0,0,0,0,0,0,0,0,0,0
23162,D021700552,-23.51602,-46.44319,RUA ROSMANINHO,nan,2017-02-19 16:45:00,4,nan,1,0,1,0,0,0,0,0,0,0,0,0,0,0,0,0,0,0,0
23163,D021700553,-23.6677,-46.65148,AV CUPECE,nan,2017-02-03 21:46:00,2,nan,2,0,0,0,0,0,0,2,0,0,0,0,0,0,0,0,0,0,0
23164,D021700554,-23.522920000000003,-46.624759999999995,AV CRUZEIRO DO SUL,nan,2017-02-28 07:00:00,2,nan,1,0,0,0,0,0,1,0,0,0,0,0,0,0,0,0,0,0,0
23165,D021700555,-23.51847,-46.45545,AV JACU-PESSEGO/NOVA TRABALHADORE,nan,2017-02-02 19:42:00,4,nan,1,0,1,0,0,0,0,0,0,0,0,0,0,0,0,0,0,0,0
23166,D021700556,-23.84907,-46.710879999999996,ESTRADA DA COLONIA,nan,2017-02-18 22:49:00,2,nan,2,0,0,1,0,0,0,1,0,0,0,0,0,0,0,0,0,0,0
23167,D021700557,-23.63404,-46.7293,RUA JOSE RAMON URTIZA,nan,2017-02-02 10:23:00,2,nan,1,0,1,0,0,0,0,1,0,0,0,0,0,0,0,0,0,0,0
23168,D021700558,-23.61393,-46.65801,AV ARATAS,nan,2017-02-07 07:33:00,4,nan,1,0,1,0,0,0,0,0,0,0,0,0,0,0,0,0,0,0,0
23169,D021700559,-23.66694,-46.78453,AV FELIPE CARRILLO PUERTO,nan,2017-02-08 12:49:00,2,nan,1,0,0,0,0,0,0,1,0,0,0,0,0,0,0,0,0,0,0
23170,D021700560,-23.56876,-46.6605,AV NOVE DE JULHO,ALAMEDA LORENA,2017-02-10 19:05:00,2,nan,1,0,1,0,0,0,0,1,0,0,0,0,0,0,0,0,0,0,0
23171,D021700561,-23.59992,-46.61374,RUA SALVADOR SIMOES,nan,2017-02-20 08:30:00,2,nan,1,0,1,0,0,0,0,1,0,0,0,0,0,0,0,0,0,0,0
23172,D021700562,-23.534860000000002,-46.74896,AV ENG BILLINGS,nan,2017-02-22 08:45:00,2,nan,1,0,0,1,0,0,0,1,0,0,0,0,0,0,0,0,0,0,0
23173,D021700563,-23.55539,-46.641709999999996,VIADUTO JULIO DE MESQUITA FILHO,nan,2017-02-23 02:16:00,2,nan,1,0,1,0,0,0,0,0,0,0,0,0,0,0,0,0,0,0,0
23174,D021700564,-23.53311,-46.53883,AV CD DE FRONTIN,nan,2017-02-04 12:59:00,2,nan,1,0,1,0,0,0,0,1,0,0,0,0,0,0,0,0,0,0,0
23175,D021700565,-23.566110000000002,-46.65075,ALAMEDA JOAQUIM EUGENIO DE LIMA,AV PAULISTA,2017-02-15 13:50:00,4,nan,1,0,1,0,0,0,0,0,0,0,0,0,0,0,0,0,0,0,0
23176,D021700566,-23.60371,-46.59707,AV ALM DELAMARE,RUA CEL SILVA CASTRO,2017-02-12 22:00:00,4,nan,0,1,0,0,0,0,0,1,0,0,0,0,0,0,0,0,0,0,0
23177,D021700567,-23.5409,-46.57958,RUA CATIGUA,nan,2017-02-11 03:38:00,2,nan,1,0,2,0,0,0,0,0,0,0,0,0,0,0,0,0,0,0,0
23178,D021700568,-23.56444,-46.74476,AV CORIFEU DE AZEVEDO MARQUES,nan,2017-02-22 12:54:00,2,nan,1,0,1,0,0,0,0,1,0,0,0,0,0,0,0,0,0,0,0
23179,D021700569,-23.5734,-46.50503,AV ARICANDUVA,nan,2017-02-03 18:14:00,2,nan,1,0,0,0,0,0,0,1,0,0,0,0,0,0,0,0,0,0,0
23180,D021700570,-23.51422,-46.47671,AV AGUIA DE HAIA,RUA PONTE RASA,2017-02-14 13:00:00,2,nan,1,0,1,0,0,0,0,1,0,1,0,0,0,0,0,0,0,0,0
23181,D021700571,-23.4206,-46.79472,VIA ANHANGUERA,nan,2017-02-01 09:00:00,2,nan,4,0,1,0,0,0,0,0,0,0,0,0,0,1,0,0,0,0,0
23182,D021700572,-23.550520000000002,-46.656240000000004,RUA DA CONSOLACAO,nan,2017-02-21 06:50:00,2,nan,1,0,1,0,0,0,0,1,0,0,0,0,0,0,0,0,0,0,0
23183,D021700573,-23.828310000000002,-46.73121,ESTRADA ENG MARCILAC,nan,2017-02-23 17:40:00,2,nan,2,0,0,0,0,0,0,1,0,0,0,0,0,0,0,0,0,0,0
23184,D021700574,-23.5978,-46.64991,RUA PEDRO DE TOLEDO,nan,2017-02-15 07:40:00,2,nan,1,0,1,0,0,0,0,0,0,0,0,0,0,0,0,0,0,0,0
23185,D021700575,-23.51464,-46.60816,AV JOAQUINA RAMALHO,nan,2017-02-03 10:28:00,2,nan,1,0,0,0,0,0,0,1,0,0,0,0,0,0,0,0,0,0,1
23186,D021700576,-23.74336,-46.67004,ESTRADA DO CANAL DA COCAIA,nan,2017-02-20 16:19:00,4,nan,1,0,1,0,0,0,0,0,0,0,0,0,0,0,0,0,0,0,0
23187,D021700577,-23.735979999999998,-46.69542,AV DONA BELMIRA MARIN,nan,2017-02-20 18:13:00,4,nan,1,0,0,0,0,0,0,1,0,0,0,0,0,0,0,0,0,0,0
23188,D021700578,-23.52954,-46.65566,RUA BARRA FUNDA,nan,2017-02-28 18:50:00,2,nan,1,0,1,0,0,0,0,0,0,0,0,0,0,0,0,0,0,0,0
23189,D021700579,-23.41454,-46.76556,VIA DOS BANDEIRANTES,nan,2017-02-06 19:26:00,2,nan,1,0,1,0,0,0,0,0,0,0,0,0,0,0,0,0,0,0,2
23190,D021700580,-23.52328,-46.6613,RUA DO BOSQUE,nan,2017-02-02 16:00:00,2,nan,1,0,0,1,0,0,0,1,0,0,1,0,0,0,0,0,0,0,0
23191,D021700581,-23.47419,-46.66982,AV DEP CANTIDIO SAMPAIO,AV INAJAR DE SOUZA,2017-02-03 06:40:00,2,nan,1,0,0,0,0,0,1,0,0,0,0,0,0,1,0,0,0,0,0
23192,D021700582,-23.53578,-46.52019,RUA JOAQUIM MARRA,RUA PDE COSTA,2017-02-14 15:20:00,2,nan,1,0,1,0,0,0,0,0,0,0,0,0,0,0,0,0,0,0,0
23193,D021700583,-23.56864,-46.554120000000005,AV VER ABEL FERREIRA,RUA MIRANDA JORDAO,2017-02-28 20:27:00,2,nan,1,0,1,0,0,0,0,1,0,0,0,0,0,0,0,0,0,0,0
23194,D021700584,-23.53797,-46.64736,RUA DR FREDERICO STEIDEL,nan,2017-02-06 09:11:00,2,nan,1,0,3,0,0,0,0,1,0,0,0,0,0,0,0,0,0,0,0
23195,D021700585,-23.51747,-46.74595,AV MARGINAL DIREITA DO TIETE,nan,2017-02-16 13:40:00,2,nan,1,0,1,0,0,0,0,1,0,0,0,0,0,0,0,0,0,0,0
23196,D021700586,-23.5602,-46.56799,RUA OITI,nan,2017-02-14 20:50:00,4,nan,0,1,1,0,0,0,0,0,0,0,0,0,0,0,0,0,0,0,0
23197,D021700587,-23.59565,-46.45381,AV RAGUEB CHOHFI,nan,2017-02-23 07:25:00,2,nan,1,0,1,0,0,0,0,1,0,0,0,0,0,0,0,0,0,0,0
23198,D021700588,-23.509510000000002,-46.43225,AV DEP JOSE ARISTODEMO PINOTTI,nan,2017-02-16 10:50:00,2,nan,1,0,2,0,0,0,0,0,0,0,0,0,0,0,0,0,0,0,0
23199,D021700589,-23.59439,-46.78634,RUA DOMINGOS ROSOLIA,nan,2017-02-20 14:40:00,2,nan,1,0,1,0,0,0,0,1,0,0,0,0,0,0,0,0,0,0,0
23200,D021700590,-23.76427,-46.70327,RUA JULIA MAMEIA,nan,2017-02-17 11:30:00,2,nan,1,0,0,0,0,0,0,1,0,0,0,0,0,0,0,0,0,0,0
23201,D021700591,-23.584220000000002,-46.52828,AV DA BARREIRA GRANDE,nan,2017-02-03 16:30:00,2,nan,1,0,1,0,0,0,1,0,0,0,0,0,0,0,0,0,0,0,0
23202,D021700592,-23.52423,-46.49296,RUA S SEVERO,AV CALIM EID (PTE RASA),2017-02-15 21:50:00,2,nan,2,0,1,1,0,0,0,0,0,0,0,0,0,0,0,0,0,0,0
23203,D021700593,-23.56733,-46.50731,AV ARICANDUVA,nan,2017-02-26 14:30:00,2,nan,1,0,1,0,0,0,0,1,0,0,0,0,0,0,0,0,0,0,0
23204,D021700594,-23.54253,-46.47997,AV JOSE PINHEIRO BORGES,nan,2017-02-18 20:05:00,2,nan,1,0,2,0,0,0,0,0,0,0,0,0,0,0,0,0,0,0,0
23205,D021700595,-23.526870000000002,-46.57611,AV MARGINAL DO RIO TIETE,nan,2017-02-03 01:20:00,2,nan,1,0,1,0,0,0,0,0,0,0,0,0,0,0,0,0,0,0,0
23206,D021700596,-23.49636,-46.393609999999995,AV MAL TITO,nan,2017-02-05 22:51:00,2,nan,1,0,3,0,0,0,0,0,0,0,0,0,0,0,0,0,0,0,0
23207,D021700597,-23.53953,-46.5423,AV ARICANDUVA,RUA JULIO COLACO,2017-02-12 14:04:00,2,nan,2,0,1,0,0,0,0,1,0,0,0,0,0,0,0,0,0,0,0
23208,D021700598,-23.5711,-46.63219,RUA ALABASTRO,nan,2017-02-21 19:05:00,2,nan,1,0,1,0,0,0,0,1,0,0,0,0,0,0,0,0,0,0,0
23209,D021700599,-23.67471,-46.643359999999994,AV CUPECE,nan,2017-02-14 17:25:00,2,nan,1,0,1,0,0,0,0,1,0,0,0,0,0,0,0,0,0,0,0
23210,D021700600,-23.67466,-46.699329999999996,AV OCTALLES MARCONDES FERREIRA,nan,2017-02-26 09:05:00,2,nan,1,0,1,0,0,0,0,1,0,0,0,0,0,0,0,0,0,0,0
23211,D021700601,-23.55196,-46.617290000000004,AV ALCANTARA MACHADO,nan,2017-02-21 14:45:00,2,nan,2,0,1,0,0,0,0,1,0,0,0,0,0,0,0,0,0,0,0
23212,D021700602,-23.48621,-46.57346,RUA ITAMONTE,RUA CRISCIUMA,2017-02-13 18:17:00,2,nan,1,0,0,1,0,0,1,0,0,0,0,0,0,0,0,0,0,0,0
23213,D021700603,-23.76546,-46.69749,AV ANTONIO CARLOS B.DOS STO(COCAI,nan,2017-02-10 14:00:00,2,nan,1,0,1,0,0,0,0,1,0,0,0,0,0,0,0,0,0,0,0
23214,D021700604,-23.52056,-46.642509999999994,AV PRES CASTELO BRANCO,nan,2017-02-09 10:21:00,2,nan,1,0,1,0,0,0,0,1,0,0,0,0,0,0,0,0,0,0,0
23215,D021700605,-23.75925,-46.71474,AV SEN TEOTONIO VILELA,nan,2017-02-07 09:40:00,2,nan,1,0,0,0,0,0,0,1,0,0,0,0,0,0,0,0,0,0,0
23216,D021700606,-23.60344,-46.50934,AV SAPOPEMBA,nan,2017-02-04 22:00:00,4,nan,0,1,1,0,0,0,0,0,0,0,0,0,0,0,0,0,0,0,0
23217,D021700607,-23.51748,-46.73945,AV MARGINAL DIREITA DO TIETE,nan,2017-02-01 06:20:00,4,nan,1,0,1,0,0,0,0,0,0,0,0,0,0,0,0,0,0,0,0
23218,D021700608,-23.531979999999997,-46.5673,RUA STO ELIAS,RUA STA MARIA,2017-02-02 23:07:00,2,nan,1,0,1,0,0,0,0,1,0,0,0,0,0,0,0,0,0,0,0
23219,D021700609,-23.75891,-46.660940000000004,AV DONA BELMIRA MARIN,nan,2017-02-09 06:45:00,2,nan,1,0,0,0,0,0,0,1,0,0,0,0,0,0,0,0,0,0,0
23220,D021700610,-23.55155,-46.5299,AV CONS CARRAO,nan,2017-02-21 11:30:00,2,nan,1,0,1,0,0,0,0,1,0,0,0,0,0,0,0,0,0,0,0
23221,D021700611,-23.74183,-46.69226,AV DONA BELMIRA MARIN,nan,2017-02-05 01:14:00,2,nan,1,0,0,1,0,0,0,0,0,0,0,0,0,0,0,0,0,0,0
23222,D021700612,-23.49584,-46.7516,AV MUTINGA,nan,2017-02-21 07:32:00,2,nan,1,0,1,0,0,0,0,1,0,0,0,0,0,0,0,0,0,0,0
23223,D021700613,-23.52907,-46.57032,RUA STA ELVIRA,RUA S FELIPE,2017-02-01 09:00:00,2,nan,2,0,1,0,0,0,0,1,0,0,0,0,0,0,0,0,0,0,0
23224,D021700614,-23.60814,-46.466590000000004,RUA TITANIA,nan,2017-02-14 15:20:00,2,nan,3,0,1,0,0,0,0,0,0,0,0,0,0,0,0,0,0,0,0
23225,D021700615,-23.64087,-46.60735,AV PDE ARLINDO VIEIRA,nan,2017-02-02 15:14:00,2,nan,1,0,1,0,0,0,0,1,0,0,0,0,0,0,0,0,0,0,0
23226,D021700616,-23.53136,-46.68571,RUA DESEM VALE,AV POMPEIA,2017-02-02 13:05:00,2,nan,1,0,1,0,0,0,0,1,0,0,0,0,0,0,0,0,0,0,0
23227,D021700617,-23.59733,-46.60538,RUA GONCALVES LEDO,RUA COSTA AGUIAR,2017-02-24 10:45:00,2,nan,1,0,1,0,0,0,0,1,0,0,0,0,0,0,0,0,0,0,0
23228,D021700618,-23.5187,-46.456070000000004,RUA BR DE CACELA,nan,2017-02-26 22:00:00,2,nan,1,0,2,0,0,0,0,0,0,0,0,0,0,0,0,0,0,0,0
23229,D021700619,-23.46031,-46.60305,AV CEL SEZEFREDO FAGUNDES,nan,2017-02-16 14:08:00,2,nan,1,0,0,1,0,0,0,1,0,0,0,0,0,0,0,0,0,0,0
23230,D021700620,-23.472739999999998,-46.625479999999996,AV ENG CAETANO ALVARES,nan,2017-02-03 21:30:00,4,nan,2,0,1,0,0,0,0,0,0,0,0,0,0,0,0,0,0,0,0
23231,D021700621,-23.52604,-46.588429999999995,VIA PRES DUTRA,nan,2017-02-23 10:30:00,2,nan,1,0,1,0,0,0,0,1,0,0,0,0,0,0,0,0,0,0,0
23232,D021700622,-23.478720000000003,-46.42568,AV FELIX NASCENTES PINTO,nan,2017-02-27 21:30:00,2,nan,1,0,1,0,0,0,0,1,0,0,0,0,0,0,0,0,0,0,0
23233,D021700623,-23.52228,-46.42143,RUA PDE NILDO DO AMARAL JUNIOR,nan,2017-02-19 20:42:00,2,nan,5,0,2,0,0,0,0,0,0,0,0,0,0,0,0,0,0,0,0
23234,D021700624,-23.52877,-46.59793,AV CDSSA ELISABETH DE ROBIANO,nan,2017-02-09 02:00:00,2,nan,1,0,1,0,0,0,0,0,0,0,0,0,0,0,0,0,0,0,0
23235,D021700625,-23.60098,-46.55036,RUA COSTA BARROS (ANT. SAO JOSE),nan,2017-02-14 18:54:00,2,nan,2,0,1,0,0,0,0,1,0,0,0,0,0,0,0,0,0,0,0
23236,D021700626,-23.564989999999998,-46.67083,RUA ESTADOS UNIDOS,RUA BELA CINTRA,2017-02-13 06:15:00,2,nan,1,0,1,0,0,0,0,1,0,0,0,0,0,0,0,0,0,0,0
23237,D021700627,-23.58416,-46.49227,AV RIO DAS PEDRAS,AV MATEO BEI,2017-02-10 19:10:00,2,nan,1,0,1,0,0,0,0,1,0,0,0,0,0,0,0,0,0,0,0
23238,D021700628,-23.67669,-46.792840000000005,ESTRADA DE ITAPECERICA,RUA ANTONIO FORLENZA,2017-02-07 21:30:00,2,nan,1,0,1,1,0,0,0,1,0,0,0,0,0,0,0,0,0,0,0
23239,D021700629,-23.47428,-46.66825,AV ITABERABA,nan,2017-02-17 08:00:00,4,nan,1,0,0,0,0,0,0,1,0,0,0,0,0,0,0,0,0,0,0
23240,D021700630,-23.61035,-46.446709999999996,TRAVESSA PAIS TROPICAL,nan,2017-02-04 16:50:00,2,nan,0,1,0,0,0,0,0,1,0,0,0,0,0,0,0,0,0,0,0
23241,D021700631,-23.54617,-46.73478,AV ENG BILLINGS,nan,2017-02-20 13:30:00,2,nan,1,0,0,1,0,0,1,0,0,0,0,0,0,0,0,0,0,0,0
23242,D021700632,-23.57343,-46.53208,RUA FELICIO PEREIRA,nan,2017-02-21 09:20:00,2,nan,1,0,2,0,0,0,0,0,0,0,0,0,0,0,0,0,0,0,0
23243,D021700633,-23.70054,-46.640029999999996,RUA DR CARLOS DE REZENDE ENOUT,RUA JOSE MAURO MENDONCA,2017-02-26 07:50:00,2,nan,2,0,1,0,0,0,0,2,0,0,0,0,0,0,0,0,0,0,0
23244,D021700634,-23.708000000000002,-46.691359999999996,RUA JUSTINO NIGRO,nan,2017-02-07 10:00:00,2,nan,1,0,0,1,0,0,0,0,0,0,0,0,0,0,0,0,0,0,0
23245,D021700635,-23.65762,-46.63558,AV EUCLIDES,nan,2017-02-15 15:25:00,2,nan,1,0,1,0,0,0,0,0,0,0,0,0,0,0,0,0,0,0,0
23246,D021700636,-23.562160000000002,-46.65159,RUA PAMPLONA,nan,2017-02-21 18:30:00,2,nan,1,0,1,0,0,0,0,1,0,0,0,0,0,0,0,0,0,0,0
23247,D021700637,-23.52439,-46.58874,RUA DR AFONSO VERGUEIRO,nan,2017-02-02 09:13:00,2,nan,1,0,0,1,0,0,0,0,0,0,0,0,0,1,0,0,0,0,0
23248,D021700638,-23.58451,-46.58786,AV PROF LUIZ IGNACIO ANHAIA MELLO,nan,2017-02-22 17:50:00,2,nan,2,0,1,0,0,0,0,0,0,0,1,0,0,0,0,0,0,0,0
23249,D021700639,-23.504089999999998,-46.7225,VIA DOS BANDEIRANTES,nan,2017-02-10 09:38:00,2,nan,1,0,0,1,0,0,0,1,0,0,0,0,0,0,0,0,0,0,0
23250,D021700640,-23.5976,-46.40442,AV DOS METALURGICOS,nan,2017-02-14 22:50:00,2,nan,0,1,1,0,0,0,0,1,0,0,0,0,0,0,0,0,0,0,0
23251,D021700641,-23.67805,-46.75873,RUA JOSE GARCIA LOPES FILHO,nan,2017-02-26 10:16:00,4,nan,2,0,0,0,0,0,0,1,0,0,0,0,0,0,0,0,0,0,0
23252,D021700642,-23.71379,-46.776720000000005,ESTRADA DA BARONESA,nan,2017-02-09 16:30:00,2,nan,1,0,0,0,0,0,0,2,0,0,0,0,0,0,0,0,0,0,0
23253,D021700643,-23.54345,-46.54064,RUA SILVEIRA BUENO,RUA JULIO COLACO,2017-02-18 13:59:00,2,nan,1,0,2,0,0,0,0,0,0,0,0,0,0,0,0,0,0,0,0
23254,D021700644,-23.58544,-46.69082,AV DAS NACOES UNIDAS,nan,2017-02-08 17:15:00,2,nan,1,0,0,0,0,0,0,1,0,0,0,0,0,0,0,0,0,0,0
23255,D021700645,-23.74673,-46.70807,RUA LUIZ ROTTA,nan,2017-02-06 18:00:00,2,nan,1,0,1,0,0,0,0,1,0,0,0,0,0,0,0,0,0,0,0
23256,D021700646,-23.77196,-46.69426,RUA ROSA DE VENUS,nan,2017-02-09 12:00:00,4,nan,1,0,1,0,0,0,0,0,0,0,0,0,0,0,0,0,0,0,0
23257,D021700647,-23.505370000000003,-46.600609999999996,RUA CEL JORDAO,RUA DO IMPERADOR,2017-02-25 11:30:00,2,nan,1,0,2,0,0,0,0,0,0,0,0,0,0,0,0,0,0,0,0
23258,D021700648,-23.46361,-46.6943,RUA JOAQUIM FERREIRA DA ROCHA,nan,2017-02-20 03:20:00,2,nan,1,0,0,0,0,0,0,1,0,0,1,0,0,0,0,0,0,0,0
23259,D021700649,-23.71145,-46.62915,AV ALDA,nan,2017-02-18 12:20:00,2,nan,0,1,0,0,0,0,0,1,0,0,0,0,0,1,0,0,0,0,0
23260,D021700650,-23.69134,-46.64403,AV ANGELO CRISTIANINI,nan,2017-02-09 16:00:00,2,nan,2,0,1,0,0,0,0,1,0,0,0,0,0,0,0,0,0,0,0
23261,D021700651,-23.56466,-46.63917,RUA PROF ANTONIO PRUDENTE,RUA VERGUEIRO,2017-02-23 12:05:00,2,nan,1,0,1,0,0,0,0,0,0,0,0,0,0,0,0,0,0,0,0
23262,D021700652,-23.611420000000003,-46.670320000000004,AV IBIRAPUERA,nan,2017-02-07 07:58:00,2,nan,2,0,2,0,0,0,0,0,0,0,0,0,0,0,0,0,0,0,0
23263,D021700653,-23.54849,-46.64775,LIGACAO LESTE-OESTE,nan,2017-02-07 20:30:00,2,nan,1,0,2,0,0,0,0,0,0,0,0,0,0,0,0,0,0,0,0
23264,D021700654,-23.5093,-46.54894,RUA DR ASSIS RIBEIRO,RUA COPEREMA,2017-02-17 19:40:00,2,nan,1,0,1,0,0,0,0,1,0,0,0,0,0,0,0,0,0,0,0
23265,D021700655,-23.61458,-46.68958,RUA RIBEIRO DO VALE,RUA CASTILHO,2017-02-20 12:30:00,2,nan,1,0,0,0,0,0,0,2,0,0,0,0,0,0,0,0,0,0,0
23266,D021700656,-23.56638,-46.75441,AV DO RIO PEQUENO,nan,2017-02-23 10:52:00,4,nan,1,0,1,0,0,0,0,0,0,0,0,0,0,0,0,0,0,0,0
23267,D021700657,-23.684060000000002,-46.69173,AV DAS NACOES UNIDAS,nan,2017-02-03 17:20:00,2,nan,1,0,0,0,0,0,0,0,0,0,1,0,0,0,0,0,0,0,0
23268,D021700658,-23.552870000000002,-46.62024,AV ALCANTARA MACHADO,nan,2017-02-07 14:20:00,2,nan,2,0,0,0,0,0,0,0,0,0,1,0,0,0,0,0,0,0,0
23269,D021700659,-23.49459,-46.731640000000006,VIA DOS BANDEIRANTES,nan,2017-02-18 18:52:00,2,nan,2,0,2,0,0,0,0,0,0,0,0,0,0,0,0,0,0,0,0
23270,D021700660,-23.49684,-46.39954,AV MAL TITO,nan,2017-02-09 13:26:00,2,nan,2,0,1,0,0,0,0,1,0,0,0,0,0,1,0,0,0,0,0
23271,D021700661,-23.50696,-46.69295,AV STA MARINA,nan,2017-02-06 19:00:00,2,nan,1,0,0,0,0,0,0,0,0,0,1,0,0,0,0,0,0,0,0
23272,D021700662,-23.52492,-46.60195,AV ASSIS CHATEAUBRIAND,nan,2017-02-10 07:35:00,2,nan,1,0,0,0,0,0,0,1,0,0,0,0,0,1,0,0,0,0,0
23273,D021700663,-23.58504,-46.57861,AV PROF LUIZ IGNACIO ANHAIA MELLO,nan,2017-02-15 06:45:00,4,nan,1,0,1,0,0,0,0,0,0,0,0,0,0,0,0,0,0,0,0
23274,D021700664,-23.67775,-46.663779999999996,RUA FANFULA,nan,2017-02-02 08:30:00,2,nan,2,0,0,0,0,0,0,1,0,0,0,0,0,0,1,0,0,0,0
23275,D021700665,-23.66916,-46.74237,RUA CAPITANIAS HEREDITARIAS,nan,2017-02-27 19:40:00,2,nan,2,0,0,0,0,0,0,1,0,0,0,0,0,0,0,0,0,0,0
23276,D021700666,-23.61916,-46.702059999999996,AV MAGALHAES DE CASTRO,nan,2017-02-26 01:20:00,2,nan,2,0,0,0,0,0,0,2,0,0,0,0,0,0,0,0,0,0,0
23277,D021700667,-23.54031,-46.593579999999996,RUA ELOI CERQUEIRA,nan,2017-02-18 16:30:00,2,nan,1,0,0,0,0,0,0,0,0,0,1,0,0,0,0,0,0,0,0
23278,D021700668,-23.4699,-46.66579,AV PARADA PINTO,nan,2017-02-11 21:32:00,2,nan,1,0,1,0,0,0,0,1,0,0,0,0,0,0,0,0,0,0,0
23279,D021700669,-23.5973,-46.60648,RUA ANTONIO MARCONDES,nan,2017-02-15 07:55:00,2,nan,1,0,0,0,0,0,0,0,0,0,1,0,0,0,0,0,0,0,0
23280,D021700670,-23.50795,-46.73925,RUA INACIO LUIS DA COSTA,nan,2017-02-11 16:08:00,2,nan,3,0,2,0,0,0,0,0,0,0,1,0,0,0,0,0,0,0,0
23281,D021700671,-23.56982,-46.46052,AV OSVALDO PUCCI,nan,2017-02-26 13:30:00,2,nan,1,0,1,0,0,0,0,1,0,0,0,0,0,0,0,0,0,0,0
23282,D021700672,-23.49488,-46.424659999999996,AV MAL TITO,nan,2017-02-28 08:00:00,2,nan,3,0,2,0,0,0,0,0,0,0,0,0,0,0,0,0,0,0,0
23283,D021700673,-23.51521,-46.6487,AV OLAVO FONTOURA,nan,2017-02-01 20:00:00,2,nan,1,0,0,1,0,0,0,1,0,0,0,0,0,0,0,0,0,0,0
23284,D021700674,-23.49718,-46.62872,RUA CONS MOREIRA DE BARROS,nan,2017-02-14 11:10:00,2,nan,1,0,1,0,0,0,0,1,0,0,0,0,0,0,0,0,0,0,0
23285,D021700675,-23.55905,-46.64144,AV BRIG LUIS ANTONIO,nan,2017-02-17 18:35:00,4,nan,1,0,0,0,0,0,0,0,0,0,0,0,0,0,0,0,0,0,1
23286,D021700676,-23.63518,-46.71863,AV DAS NACOES UNIDAS,nan,2017-02-01 16:45:00,2,nan,1,0,0,0,0,0,0,1,0,0,0,0,0,0,0,0,0,0,1
23287,D021700677,-23.59425,-46.44265,AV RAGUEB CHOHFI,nan,2017-02-14 05:40:00,2,nan,1,0,1,0,0,0,0,1,0,0,0,0,0,0,0,0,0,0,0
23288,D021700678,-23.48466,-46.505179999999996,VIA AIRTON SENNA DA SILVA,nan,2017-02-19 01:13:00,4,nan,1,0,0,0,0,0,0,1,0,0,0,0,0,0,0,0,0,0,0
23289,D021700679,-23.55555,-46.605129999999996,RUA DA MOOCA,nan,2017-02-12 03:49:00,2,nan,1,0,1,0,0,0,0,0,0,0,0,0,0,0,0,0,0,0,0
23290,D021700680,-23.585420000000003,-46.527440000000006,AV DA BARREIRA GRANDE,nan,2017-02-04 13:00:00,2,nan,1,0,1,0,0,0,0,1,0,0,0,0,0,0,0,0,0,0,0
23291,D021700681,-23.680120000000002,-46.64846,RUA COMEN ARTUR CAPODAGLIO,nan,2017-02-26 16:30:00,2,nan,1,0,0,0,0,0,0,1,0,0,0,0,0,0,0,0,0,0,0
23292,D021700682,-23.404420000000002,-46.741890000000005,RUA FIORELLI PECCICACCO,nan,2017-02-07 06:40:00,2,nan,1,0,1,0,0,0,0,1,0,0,0,0,0,0,0,0,0,0,0
23293,D021700683,-23.60826,-46.693999999999996,AV ENG LUIS CARLOS BERRINI,RUA GERALDO FLAUSINO GOMES,2017-02-11 11:00:00,2,nan,2,0,2,0,0,0,0,0,0,0,0,0,0,0,0,0,0,0,0
23294,D021700684,-23.62469,-46.465759999999996,RUA JULIO CESAR MOREIRA,nan,2017-02-24 17:00:00,4,nan,1,0,0,0,0,0,0,1,0,0,0,0,0,0,0,0,0,0,0
23295,D021700685,-23.540429999999997,-46.683609999999994,RUA AIMBERE,nan,2017-02-10 23:45:00,2,nan,1,0,2,0,0,0,0,0,0,0,0,0,0,0,0,0,0,0,0
23296,D021700686,-23.739729999999998,-46.691990000000004,AV DONA BELMIRA MARIN,nan,2017-02-23 10:00:00,2,nan,2,0,1,0,0,0,0,0,0,0,0,0,0,1,0,0,0,0,0
23297,D021700687,-23.51998,-46.50414,AV CALIM EID (PTE RASA),nan,2017-02-12 21:04:00,4,nan,0,1,1,0,0,0,0,0,0,0,0,0,0,0,0,0,0,0,0
23298,D021700688,-23.49953,-46.57991,PRACA PRES JANIO DA SILVA QUADROS,nan,2017-02-04 21:02:00,2,nan,1,0,2,0,0,0,0,0,0,0,0,0,0,0,0,0,0,0,0
23299,D021700689,-23.584889999999998,-46.60812,RUA BOM PASTOR,nan,2017-02-18 10:00:00,2,nan,1,0,0,1,0,0,0,1,0,0,0,0,0,0,0,0,0,0,0
23300,D021700690,-23.576629999999998,-46.54056,RUA HAMILTON PRADO,RUA PIERROTINHO,2017-02-09 11:33:00,2,nan,5,0,1,1,0,0,0,0,0,0,0,0,0,0,0,0,0,0,0
23301,D021700691,-23.56835,-46.59357,RUA CELSO DE AZEVEDO MARQUES,nan,2017-02-23 22:30:00,2,nan,1,0,1,0,0,0,0,1,0,0,0,0,0,0,0,0,0,0,0
23302,D021700692,-23.6594,-46.76998,ESTRADA DE ITAPECERICA,nan,2017-02-08 15:34:00,2,nan,1,0,1,0,0,0,0,1,0,0,0,0,0,0,0,0,0,0,0
23303,D021700693,-23.50014,-46.64784,AV CASA VERDE,RUA VALDEMAR MARTINS,2017-02-02 19:00:00,2,nan,2,0,1,0,0,0,0,1,0,0,0,0,0,0,0,0,0,0,0
23304,D021700694,-23.53235,-46.5014,RUA DR LUIZ AYRES,nan,2017-02-02 07:50:00,2,nan,1,0,1,0,0,0,0,1,0,0,0,0,0,0,0,0,0,0,0
23305,D021700695,-23.416529999999998,-46.58033,VIA FERNAO DIAS,nan,2017-02-04 04:00:00,2,nan,2,0,1,0,0,0,0,0,0,0,0,0,0,0,0,0,0,0,0
23306,D021700696,-23.52042,-46.74612,AV EMB MACEDO SOARES,nan,2017-02-21 12:30:00,2,nan,2,0,1,0,0,0,0,2,0,0,0,0,0,0,0,0,0,0,0
23307,D021700697,-23.609579999999998,-46.70171,RUA PAULO BOURROUL,nan,2017-02-13 19:20:00,2,nan,1,0,1,0,0,0,0,1,0,0,0,0,0,0,0,0,0,0,0
23308,D021700698,-23.63073,-46.64248,PRACA WHITAKER PENTEADO,nan,2017-02-06 10:30:00,4,nan,1,0,1,0,0,0,0,0,0,0,0,0,0,0,0,0,0,0,0
23309,D021700699,-23.55232,-46.41389,RUA SATURNINO PEREIRA,nan,2017-02-05 21:35:00,2,nan,2,0,1,0,0,0,0,1,0,0,0,0,0,0,0,0,0,0,0
23310,D021700700,-23.477339999999998,-46.75821,RUA JOAQUIM DE FIGUEIREDO,nan,2017-02-01 22:04:00,2,nan,1,0,2,0,0,0,0,0,0,0,0,0,0,0,0,0,0,0,0
23311,D021700701,-23.5108,-46.39451,RUA TIBURCIO DE SOUSA,nan,2017-02-13 06:45:00,2,nan,1,0,1,0,0,0,0,1,0,0,0,0,0,0,0,0,0,0,0
23312,D021700702,-23.6026,-46.527609999999996,AV DO ORATORIO,nan,2017-02-13 01:00:00,2,nan,1,0,1,0,0,0,0,1,0,0,0,0,0,0,0,0,0,0,0
23313,D021700703,-23.4712,-46.651959999999995,AV PARADA PINTO,nan,2017-02-24 09:00:00,2,nan,1,0,1,0,0,0,0,1,0,0,0,0,0,0,0,0,0,0,0
23314,D021700704,-23.66764,-46.70375,RUA DR ALVARO GOMES DOS REIS,nan,2017-02-09 12:40:00,2,nan,1,0,0,0,0,0,0,1,0,0,0,0,0,0,0,0,0,0,1
23315,D021700705,-23.49778,-46.75499,VIA ANHANGUERA,nan,2017-02-06 07:42:00,2,nan,1,0,1,1,0,0,0,1,0,0,0,0,0,0,0,0,0,0,0
23316,D021700706,-23.70328,-46.70156,AV SEN TEOTONIO VILELA,nan,2017-02-01 17:30:00,2,nan,1,0,1,0,0,0,0,1,0,0,0,0,0,0,0,0,0,0,0
23317,D021700707,-23.43873,-46.751059999999995,AV ALEXIOS JAFET (ESTR.CAMPINAS),RUA FRANCISCO DA CUNHA MENEZES,2017-02-03 22:45:00,2,nan,2,0,0,0,0,0,0,1,0,0,1,0,0,0,0,0,0,0,0
23318,D021700708,-23.48236,-46.656009999999995,AV LASAR SEGALL,nan,2017-02-14 16:45:00,2,nan,2,0,1,1,0,0,0,0,0,0,0,0,0,0,0,0,0,0,0
23319,D021700709,-23.69495,-46.656459999999996,ESTRADA DO ALVARENGA,nan,2017-02-01 05:40:00,2,nan,2,0,1,0,0,0,0,0,0,0,1,0,0,0,0,0,0,0,0
23320,D021700710,-23.57374,-46.64867,RUA MARIO AMARAL,nan,2017-02-07 08:45:00,4,nan,1,0,1,0,0,0,0,0,0,0,0,0,0,0,0,0,0,0,0
23321,D021700711,-23.52559,-46.57215,AV TTE AMARO FELICISSIMO DA SILVEIRA,nan,2017-02-05 01:30:00,4,nan,2,0,1,0,0,0,0,0,0,0,0,0,0,0,0,0,0,0,0
23322,D021700712,-23.4925,-46.465109999999996,RUA SERRA DA MOEDA,nan,2017-02-11 21:09:00,2,nan,2,1,0,0,0,0,0,2,0,0,0,0,0,0,0,0,0,0,0
23323,D021700713,-23.51985,-46.583729999999996,RUA MAGARINOS TORRES,nan,2017-02-08 17:50:00,2,nan,1,0,1,0,0,0,0,1,0,0,0,0,0,0,0,0,0,0,0
23324,D021700714,-23.52045,-46.48936,RUA JOAO JOSE DE QUEIROZ,nan,2017-02-19 18:08:00,2,nan,1,0,1,0,0,0,0,1,0,0,0,0,0,0,0,0,0,0,0
23325,D021700715,-23.44502,-46.72163,ESTRADA DO CONGO,nan,2017-02-18 17:20:00,2,nan,1,0,1,0,0,0,0,1,0,0,0,0,0,0,0,0,0,0,0
23326,D021700716,-23.58036,-46.68264,AV NOVE DE JULHO,nan,2017-02-09 12:30:00,2,nan,1,0,1,0,0,0,0,1,0,0,0,0,0,0,0,0,0,0,0
23327,D021700717,-23.600620000000003,-46.7921,RUA PDE JOAO DA CUNHA,nan,2017-02-11 19:00:00,2,nan,1,0,1,0,0,0,0,1,0,0,0,0,0,0,0,0,0,0,0
23328,D021700718,-23.541120000000003,-46.63885,AV IPIRANGA,AV RIO BRANCO,2017-02-08 15:45:00,2,nan,1,0,0,0,0,0,0,0,0,0,1,0,0,0,0,0,0,0,0
23329,D021700719,-23.63756,-46.74333,RUA MARIA JOSE DA CONCEICAO,nan,2017-02-19 03:20:00,2,nan,0,1,0,0,0,0,0,1,0,0,0,0,0,0,0,0,0,0,0
23330,D021700720,-23.55135,-46.52329,AV ARICANDUVA,nan,2017-02-16 17:20:00,2,nan,1,0,1,0,0,0,0,1,0,0,0,0,0,0,0,0,0,0,0
23331,D021700721,-23.73238,-46.69749,AV SEN TEOTONIO VILELA,nan,2017-02-09 15:00:00,4,nan,1,0,0,0,0,0,0,1,0,0,0,0,0,0,0,0,0,0,0
23332,D021700722,-23.55799,-46.61528,AV DO ESTADO,nan,2017-02-07 18:05:00,2,nan,1,0,0,0,0,0,0,1,0,0,0,0,0,0,0,0,0,0,0
23333,D021700723,-23.56755,-46.63617,RUA JOSE GETULIO,nan,2017-02-09 18:05:00,2,nan,1,0,1,1,0,0,0,0,0,0,0,0,0,0,0,0,0,0,0
23334,D021700724,-23.54281,-46.64757,RUA AMARAL GURGEL,RUA STA ISABEL,2017-02-06 20:08:00,4,nan,0,1,1,0,0,0,0,0,0,0,0,0,0,0,0,0,0,0,0
23335,D021700725,-23.59187,-46.53283,RUA GALEAO,nan,2017-02-12 16:00:00,2,nan,1,0,1,0,0,0,0,1,0,0,0,0,0,0,0,0,0,0,0
23336,D021700726,-23.48556,-46.713409999999996,PRACA ANTERO FERREIRA DE BRITO,nan,2017-02-13 13:30:00,2,nan,1,0,1,0,0,0,0,1,0,0,0,0,0,0,0,0,0,0,0
23337,D021700727,-23.719,-46.69863,AV SEN TEOTONIO VILELA,nan,2017-02-01 00:03:00,4,nan,2,0,0,0,0,0,0,1,0,0,0,0,0,0,0,0,0,0,0
23338,D021700728,-23.449189999999998,-46.71074,RUA ALFONSO LAZZARI,nan,2017-02-21 15:11:00,4,nan,0,1,1,0,0,0,0,0,0,0,0,0,0,0,0,0,0,0,0
23339,D021700729,-23.57822,-46.74818,AV MAL FIUZA DE CASTRO,AV ENG HEITOR ANTONIO EIRAS GARCIA,2017-02-17 16:00:00,2,nan,1,0,1,0,0,0,0,1,0,0,0,0,0,0,0,0,0,0,0
23340,D021700730,-23.62741,-46.61838,CV MARIA MALUF,nan,2017-02-16 21:30:00,2,nan,1,0,0,1,0,0,0,1,0,0,0,0,0,1,0,0,0,0,0
23341,D021700731,-23.56117,-46.48254,RUA MORUBIXABA,nan,2017-02-06 11:10:00,2,nan,2,0,1,0,0,0,0,1,0,0,0,0,0,0,0,0,0,0,0
23342,D021700732,-23.52051,-46.5907,AV GUILHERME COTCHING,nan,2017-02-16 22:30:00,4,nan,1,0,1,0,0,0,0,0,0,0,0,0,0,0,0,0,0,0,0
23343,D021700733,-23.48986,-46.57627,RUA CANAPOLIS,nan,2017-02-18 18:15:00,2,nan,2,0,0,2,0,0,0,0,0,0,0,0,0,0,0,0,0,0,0
23344,D021700734,-23.60984,-46.6169,AV DO CURSINO,nan,2017-02-07 11:23:00,2,nan,1,0,1,0,0,0,0,1,0,0,0,0,0,0,0,0,0,0,0
23345,D021700735,-23.610870000000002,-46.63495,RUA BERTIOGA,nan,2017-02-19 04:04:00,2,nan,1,0,1,0,0,0,0,0,0,0,0,0,0,0,0,0,0,0,0
23346,D021700736,-23.538,-46.62789,RUA DA CANTAREIRA,nan,2017-02-15 11:40:00,4,nan,1,0,1,0,0,0,0,0,0,0,0,0,0,0,0,0,0,0,0
23347,D021700737,-23.56982,-46.46052,AV OSVALDO PUCCI,nan,2017-02-10 17:00:00,2,nan,1,0,1,0,0,0,0,1,0,0,0,0,0,0,0,0,0,0,0
23348,D021700738,-23.54495,-46.422990000000006,AV RIBEIRAO ITAQUERA,nan,2017-02-04 00:30:00,4,nan,1,0,0,0,0,0,0,1,0,0,0,0,0,0,0,0,0,0,0
23349,D021700739,-23.55525,-46.6379,AV VINTE E TRES DE MAIO,nan,2017-02-05 13:42:00,2,nan,1,0,1,0,0,0,0,0,0,0,0,0,0,0,0,0,0,0,0
23350,D021700740,-23.55525,-46.6379,AV VINTE E TRES DE MAIO,nan,2017-02-13 06:55:00,2,nan,1,0,1,0,0,0,0,1,0,0,0,0,0,0,0,0,0,0,0
23351,D021700741,-23.47546,-46.59132,AV GUAPIRA,nan,2017-02-24 11:15:00,2,nan,1,0,0,1,0,0,0,1,0,0,0,0,0,0,0,0,0,0,0
23352,D021700742,-23.54139,-46.4925,RUA MACIEL MONTEIRO,nan,2017-02-22 12:00:00,2,nan,1,0,1,0,0,0,0,1,0,0,0,0,0,0,0,0,0,0,0
23353,D021700743,-23.603260000000002,-46.57045,AV DR FRANCISCO MESQUITA,RUA BAIA GRANDE,2017-02-08 15:27:00,4,nan,1,0,0,1,0,0,0,0,0,0,0,0,0,0,0,0,0,0,0
23354,D021700744,-23.59069,-46.50408,AV DA BARREIRA GRANDE,nan,2017-02-04 01:22:00,2,nan,2,0,0,1,0,0,0,1,0,0,0,0,0,0,0,0,0,0,0
23355,D021700745,-23.52722,-46.45377,RUA VIRGINIA DE MIRANDA,nan,2017-02-24 17:00:00,4,nan,1,0,0,0,0,0,0,1,0,0,0,0,0,0,0,0,0,0,0
23356,D021700746,-23.60265,-46.50091,RUA FLOR DA MADRUGADA,nan,2017-02-25 22:40:00,2,nan,1,0,0,0,0,0,0,1,0,0,0,0,0,0,0,0,0,0,0
23357,D021700747,-23.58223,-46.567440000000005,AV PROF LUIZ IGNACIO ANHAIA MELLO,nan,2017-02-08 06:00:00,2,nan,1,0,0,0,0,0,0,1,0,0,0,0,0,0,0,0,0,0,1
23358,D021700748,-23.51569,-46.65868,AV OTAVIANO ALVES DE LIMA,nan,2017-02-09 08:30:00,2,nan,1,0,1,0,0,0,0,1,0,0,0,0,0,0,0,0,0,0,0
23359,D021700749,-23.61917,-46.49416,RUA CABO PAULO PEREIRA DA SILVA,nan,2017-02-01 19:00:00,2,nan,0,1,0,0,0,0,1,0,0,0,1,0,0,0,0,0,0,0,0
23360,D021700750,-23.75657,-46.66697,AV DONA BELMIRA MARIN,nan,2017-02-17 04:18:00,4,nan,1,0,0,0,0,0,0,0,0,0,1,0,0,0,0,0,0,0,0
23361,D021700751,-23.51285,-46.53075,PRACA ERVA DE PASSARINHO,RUA ANTONIO PAGANINI,2017-02-06 16:45:00,2,nan,2,0,2,0,0,0,0,0,0,0,0,0,0,0,0,0,0,0,0
23362,D021700752,-23.673170000000002,-46.734790000000004,AV GUARAPIRANGA,nan,2017-02-16 15:30:00,2,nan,2,0,0,0,0,0,0,0,0,0,1,0,0,0,0,0,0,0,0
23363,D021700753,-23.54231,-46.41639,RUA COPENHAGUE,nan,2017-02-23 10:00:00,4,nan,1,0,0,0,0,0,0,1,0,0,0,0,0,0,0,0,0,0,0
23364,D021700754,-23.4205,-46.58812,AV CEL SEZEFREDO FAGUNDES,nan,2017-02-09 05:30:00,2,nan,1,0,0,1,0,0,0,0,0,0,1,0,0,0,0,0,0,0,0
23365,D021700755,-23.44078,-46.71144,RUA MONTE ALEGRE DO SUL,nan,2017-02-03 12:01:00,4,nan,1,0,1,0,0,0,0,0,0,0,0,0,0,0,0,0,0,0,0
23366,D021700756,-23.52759,-46.45712,AV JACU-PESSEGO/NOVA TRABALHADORE,RUA DAS BOAS NOITES,2017-02-11 16:30:00,2,nan,1,0,1,0,0,0,0,1,0,0,0,0,0,0,0,0,0,0,0
23367,D021700757,-23.51013,-46.541540000000005,AV CANGAIBA,nan,2017-02-23 11:38:00,2,nan,1,0,0,0,0,0,0,1,0,0,0,0,0,0,0,0,0,0,0
23368,D021700758,-23.58622,-46.53731,RUA SOLIDONIO LEITE,nan,2017-02-23 17:20:00,4,nan,1,0,0,1,0,0,0,0,0,0,0,0,0,0,0,0,0,0,0
23369,D021700759,-23.56018,-46.4837,AV OSVALDO VALLE CORDEIRO,nan,2017-02-07 11:45:00,2,nan,1,0,0,0,0,0,0,0,0,0,1,0,0,0,0,0,0,0,0
