,id_acidente,latitude,longitude,endereco1,endereco2,data,cod_acid,tipo_acid,feridas,mortas,automovel,caminhonete,carreta,jipe,bicicleta,moto,moto_taxi,micro_onibus,onibus,onibus_urbano,onibus_fretado,caminhao,van,vuc,outros,carroca,sem_informacao
21136,D021600001,-23.51882,-46.67812,AV MARQ DE SAO VICENTE,nan,2016-02-06 16:00:00,2,Colisao traseira,1,0,1,0,0,0,0,1,0,0,0,0,0,0,0,0,0,0,0
21137,D021600002,-23.61996,-46.63688,AV MIGUEL ESTEFANO,RUA PARANAPANEMA,2016-02-25 00:12:00,2,Colisao,1,0,1,0,0,0,0,1,0,0,0,0,0,0,0,0,0,0,0
21138,D021600003,-23.636120000000002,-46.769259999999996,ESTRADA DO CAMPO LIMPO,RUA JOAO BERNARDO VIEIRA,2016-02-06 21:10:00,2,Choque,8,0,0,0,0,0,0,0,0,0,1,0,0,0,0,0,0,0,0
21139,D021600004,-23.53293,-46.64228,RUA HELVETIA,nan,2016-02-19 09:50:00,4,Atropelamento,2,0,0,0,0,0,0,0,0,0,0,0,0,1,0,0,0,0,0
21140,D021600005,-23.52978,-46.74746,AV DAS NACOES UNIDAS,nan,2016-02-09 23:20:00,2,Colisao,3,0,1,0,0,0,3,0,0,0,0,0,0,0,0,0,0,0,0
21141,D021600006,-23.60332,-46.52644,AV DO ORATORIO,nan,2016-02-29 21:30:00,2,Colisao,1,0,2,0,0,0,0,0,0,0,0,0,0,0,0,0,0,0,0
21142,D021600007,-23.64855,-46.761520000000004,ESTRADA DO CAMPO LIMPO,nan,2016-02-11 17:45:00,4,Atropelamento,4,0,0,0,0,0,0,1,0,0,0,0,0,0,0,0,0,0,0
21143,D021600008,-23.4695,-46.68254,RUA ESTEVAO DE SIQUEIRA,nan,2016-02-14 03:00:00,2,Colisao,1,0,2,0,0,0,0,0,0,0,0,0,0,0,0,0,0,0,0
21144,D021600009,-23.5079,-46.5338,AV CANGAIBA,nan,2016-02-21 22:30:00,4,Atropelamento,2,0,1,0,0,0,0,0,0,0,1,0,0,0,0,0,0,0,0
21145,D021600010,-23.76943,-46.69957,AV ANTONIO CARLOS B.DOS STO(COCAI,nan,2016-02-27 15:33:00,4,Atropelamento,1,0,1,0,0,0,0,0,0,0,0,0,0,0,0,0,0,0,0
21146,D021600011,-23.7715,-46.68037,ESTRADA DO BARRO BRANCO (GRAJAU),nan,2016-02-26 21:30:00,2,Choque,1,0,0,0,0,0,0,1,0,0,0,0,0,0,0,0,0,0,0
21147,D021600012,-23.49224,-46.44076,RUA ARLINDO COLACO,nan,2016-02-22 11:33:00,2,Colisao frontal,1,0,1,0,0,0,0,0,0,0,1,0,0,0,0,0,0,0,0
21148,D021600013,-23.53914,-46.57117,RUA MELO FREIRE,AV AZEVEDO,2016-02-20 15:30:00,2,Colisao,1,0,1,0,0,0,0,1,0,0,0,0,0,0,0,0,0,0,0
21149,D021600014,-23.65244,-46.66446,RUA ALBA,nan,2016-02-04 18:30:00,4,Atropelamento,1,0,1,0,0,0,0,0,0,0,0,0,0,0,0,0,0,0,0
21150,D021600015,-23.52584,-46.58262,RUA NESTOR DE HOLANDA,nan,2016-02-13 05:04:00,2,Colisao frontal,2,0,1,0,0,0,0,1,0,0,0,0,0,0,0,0,0,0,0
21151,D021600016,-23.5322,-46.61136,RUA JOAO BOEMER,RUA STA RITA,2016-02-27 19:34:00,2,Colisao lateral,1,0,2,0,0,0,0,0,0,0,0,0,0,0,0,0,0,0,0
21152,D021600017,-23.52419,-46.63082,AV DO ESTADO,AV SANTOS DUMONT,2016-02-05 13:15:00,2,Sem Informacao,1,0,0,0,0,0,0,1,0,0,0,0,0,1,0,0,0,0,0
21153,D021600018,-23.48236,-46.63151,RUA VOLUNTARIOS DA PATRIA,AV ENG CAETANO ALVARES,2016-02-23 02:05:00,2,Colisao lateral,2,0,1,1,0,0,0,0,0,0,0,0,0,0,0,0,0,0,0
21154,D021600019,-23.4758,-46.66421,AV IMIRIM,nan,2016-02-02 16:30:00,4,Atropelamento,1,0,0,0,0,0,0,1,0,0,0,0,0,0,0,0,0,0,0
21155,D021600020,-23.6185,-46.63551,RUA PEREIRA ESTEFANO,nan,2016-02-20 04:30:00,4,Atropelamento,1,0,0,0,0,0,0,0,0,0,0,0,0,0,0,0,0,0,1
21156,D021600021,-23.58713,-46.49331,AV ARQ VILANOVA ARTIGAS,nan,2016-02-18 05:40:00,2,Colisao,1,0,0,0,0,0,0,1,0,0,1,0,0,0,0,0,0,0,0
21157,D021600022,-23.55459,-46.66251,AV ANGELICA,nan,2016-02-02 17:28:00,4,Atropelamento,1,0,1,0,0,0,0,0,0,0,0,0,0,0,0,0,0,0,0
21158,D021600023,-23.44633,-46.59783,AV CEL SEZEFREDO FAGUNDES,nan,2016-02-17 06:30:00,2,Colisao frontal,1,0,1,0,0,0,0,1,0,0,0,0,0,0,0,0,0,0,0
21159,D021600024,-23.64527,-46.71324,AV JOAO DIAS,nan,2016-02-03 15:57:00,2,Colisao traseira,1,0,1,0,0,0,0,1,0,0,0,0,0,0,0,0,0,0,0
21160,D021600025,-23.59733,-46.5971,AV JUNTAS PROVISORIAS,nan,2016-02-11 15:00:00,2,Colisao,2,0,0,1,0,0,0,1,0,0,0,0,0,0,0,0,0,0,0
21161,D021600026,-23.558239999999998,-46.66107,RUA AUGUSTA,nan,2016-02-05 14:03:00,4,Atropelamento,1,0,0,1,0,0,0,0,0,0,0,0,0,0,0,0,0,0,0
21162,D021600027,-23.61765,-46.701570000000004,AV MARGINAL DO RIO PINHEIROS (SYL,nan,2016-02-04 15:30:00,2,Colisao,1,0,0,0,0,0,0,2,0,0,0,0,0,0,0,0,0,0,0
21163,D021600028,-23.52401,-46.55641,AV CIRCULAR,nan,2016-02-16 16:00:00,2,Choque,2,0,1,0,0,0,0,0,0,0,0,0,0,0,0,0,0,0,0
21164,D021600029,-23.53359,-46.56536,AV CELSO GARCIA,nan,2016-02-12 08:00:00,2,Queda ocupante dentro,1,0,0,0,0,0,0,0,0,0,1,0,0,0,0,0,0,0,0
21165,D021600030,-23.5958,-46.43773,AV RAGUEB CHOHFI,nan,2016-02-07 12:45:00,4,Atropelamento,1,0,0,0,0,0,0,1,0,0,0,0,0,0,0,0,0,0,0
21166,D021600031,-23.66756,-46.73129,AV GUARAPIRANGA,nan,2016-02-17 07:49:00,4,Atropelamento,1,0,0,0,0,0,0,0,0,0,1,0,0,0,0,0,0,0,0
21167,D021600032,-23.475839999999998,-46.68475,AV JOAO PAULO I,nan,2016-02-13 06:34:00,4,Atropelamento,1,0,1,0,0,0,0,0,0,0,0,0,0,0,0,0,0,0,0
21168,D021600033,-23.54225,-46.5825,AV ALCANTARA MACHADO,nan,2016-02-28 16:45:00,2,Colisao traseira,1,0,1,0,0,0,0,1,0,0,0,0,0,0,0,0,0,0,0
21169,D021600034,-23.557470000000002,-46.536609999999996,RUA SABOO,RUA FLORENTINOS,2016-02-22 07:15:00,2,Colisao,1,0,1,0,0,0,0,1,0,0,0,0,0,0,0,0,0,0,0
21170,D021600035,-23.53254,-46.53772,AV CD DE FRONTIN,nan,2016-02-29 07:00:00,2,Queda moto/bicicleta,2,0,0,0,0,0,0,1,0,0,0,0,0,0,0,0,0,0,0
21171,D021600036,-23.5928,-46.54647,RUA DO ORATORIO,nan,2016-02-26 17:10:00,2,Colisao,1,0,1,0,0,0,0,1,0,0,0,0,0,0,0,0,0,0,0
21172,D021600037,-23.54441,-46.59203,AV ALCANTARA MACHADO,nan,2016-02-28 02:10:00,4,Atropelamento,1,0,1,0,0,0,0,0,0,0,0,0,0,0,0,0,0,0,0
21173,D021600038,-23.45575,-46.666540000000005,RUA RIO DOS CEDROS,nan,2016-02-13 21:40:00,4,Atropelamento,1,0,0,0,0,0,0,1,0,0,0,0,0,0,0,0,0,0,0
21174,D021600039,-23.66696,-46.722390000000004,AV GUARAPIRANGA,nan,2016-02-09 13:18:00,2,Sem Informacao,2,0,0,0,0,0,0,1,0,0,0,0,0,0,0,0,0,0,1
21175,D021600040,-23.49316,-46.413990000000005,AV ESTRELA DA NOITE,nan,2016-02-21 15:20:00,2,Sem Informacao,2,0,1,0,0,0,1,1,0,0,0,0,0,0,0,0,0,0,0
21176,D021600041,-23.518639999999998,-46.589729999999996,AV GUILHERME COTCHING,nan,2016-02-02 17:30:00,2,Colisao traseira,1,0,2,0,0,0,0,0,0,0,0,0,0,0,0,0,0,0,0
21177,D021600042,-23.58166,-46.64953,RUA DR AMANCIO DE CARVALHO,nan,2016-02-19 20:30:00,2,Colisao,1,0,1,0,0,0,0,1,0,0,0,0,0,0,0,0,0,0,0
21178,D021600043,-23.543229999999998,-46.42123,ESTRADA ITAQUERA-GUAIANAZES,nan,2016-02-05 14:00:00,2,Colisao lateral,1,0,1,0,0,0,0,1,0,0,0,0,0,0,0,0,0,0,0
21179,D021600044,-23.466920000000002,-46.6407,AV PARADA PINTO,nan,2016-02-12 23:05:00,4,Atropelamento,1,0,1,0,0,0,0,0,0,0,0,0,0,0,0,0,0,0,0
21180,D021600045,-23.45951,-46.60589,RUA MANUEL GAYA,nan,2016-02-01 20:45:00,2,Queda moto/bicicleta,1,0,0,0,0,0,0,1,0,0,0,0,0,0,0,0,0,0,0
21181,D021600046,-23.67495,-46.797109999999996,RUA ANDORINHA-PEQUENA,nan,2016-02-08 02:45:00,4,Atropelamento,1,0,0,0,0,0,0,0,0,0,0,0,0,0,0,0,0,0,1
21182,D021600047,-23.544220000000003,-46.56086,RUA CANTAGALO,RUA MONTE SERRAT,2016-02-17 21:34:00,2,Sem Informacao,1,0,1,0,0,0,0,1,0,0,0,0,0,0,0,0,0,0,0
21183,D021600048,-23.55175,-46.63712,AV VINTE E TRES DE MAIO,nan,2016-02-23 06:30:00,2,Queda moto/bicicleta,1,0,0,0,0,0,0,1,0,0,0,0,0,0,0,0,0,0,0
21184,D021600049,-23.46677,-46.666940000000004,RUA AFONSO LOPES VIEIRA,nan,2016-02-13 12:45:00,2,Colisao,2,0,1,0,0,0,0,1,0,0,0,0,0,0,0,0,0,0,0
21185,D021600050,-23.62031,-46.509890000000006,RUA LUIS JULIANI,nan,2016-02-26 21:30:00,2,Queda moto/bicicleta,1,0,0,0,0,0,0,1,0,0,0,0,0,0,0,0,0,0,0
21186,D021600051,-23.507260000000002,-46.659,RUA CARANDAI,RUA JABOATAO,2016-02-08 23:39:00,2,Colisao,0,1,1,0,0,0,0,1,0,0,0,0,0,0,0,0,0,0,0
21187,D021600052,-23.49981,-46.66816,RUA CAROLINA SOARES,nan,2016-02-13 15:00:00,2,Colisao lateral,1,0,1,0,0,0,0,1,0,0,0,0,0,0,0,0,0,0,0
21188,D021600053,-23.5937,-46.53975,AV PROF LUIZ IGNACIO ANHAIA MELLO,nan,2016-02-20 18:48:00,2,Choque,0,1,1,0,0,0,0,0,0,0,0,0,0,0,0,0,0,0,0
21189,D021600054,-23.547279999999997,-46.62438,AV RANGEL PESTANA,nan,2016-02-04 11:50:00,2,Queda ocupante dentro,1,0,0,0,0,0,0,0,0,0,1,0,0,0,0,0,0,0,0
21190,D021600055,-23.4891,-46.5786,AV GUSTAVO ADOLFO,nan,2016-02-03 10:11:00,2,Colisao,1,0,1,0,0,0,0,1,0,0,0,0,0,0,0,0,0,0,0
21191,D021600056,-23.55248,-46.63697,AV VINTE E TRES DE MAIO,nan,2016-02-26 11:40:00,2,Colisao lateral,1,0,1,0,0,0,0,1,0,0,0,0,0,0,0,0,0,0,0
21192,D021600057,-23.57068,-46.70368,RUA AGOSTINHO CANTU,RUA DESEM ARMANDO FAIRBANKS,2016-02-01 08:51:00,2,Colisao,1,0,1,1,0,0,0,0,0,0,0,0,0,0,0,0,0,0,0
21193,D021600058,-23.52415,-46.47698,RUA SONHO GAUCHO,RUA CAMPO DAS PITANGUEIRAS,2016-02-17 06:20:00,2,Colisao,2,0,1,0,0,0,0,1,0,0,0,0,0,0,0,0,0,0,0
21194,D021600059,-23.62526,-46.74309,RUA JOAO SIMOES DE SOUZA,nan,2016-02-15 19:26:00,2,Colisao,1,0,1,0,0,0,0,1,0,0,0,0,0,0,0,0,0,0,0
21195,D021600060,-23.58569,-46.8036,RUA CACHOEIRA PORAQUE,nan,2016-02-01 03:00:00,2,Queda moto/bicicleta,1,0,0,0,0,0,0,1,0,0,0,0,0,0,0,0,0,0,0
21196,D021600061,-23.50913,-46.54912,RUA DR ASSIS RIBEIRO,nan,2016-02-28 13:00:00,2,Colisao,1,0,2,0,0,0,0,0,0,0,0,0,0,0,0,0,0,0,0
21197,D021600062,-23.54172,-46.64063,RUA CONS NEBIAS,nan,2016-02-08 08:40:00,4,Atropelamento,1,0,1,0,0,0,0,0,0,0,0,0,0,0,0,0,0,0,0
21198,D021600063,-23.575020000000002,-46.61916,RUA EIRAS GARCIA,nan,2016-02-06 15:00:00,2,Colisao,1,0,1,0,0,0,0,1,0,0,0,0,0,0,0,0,0,0,0
21199,D021600064,-23.61459,-46.689659999999996,AV JORN ROBERTO MARINHO,RUA RIBEIRO DO VALE,2016-02-18 09:20:00,2,Queda moto/bicicleta,1,0,0,0,0,0,0,1,0,0,0,0,0,0,0,0,0,0,0
21200,D021600065,-23.578870000000002,-46.51212,AV DOS NACIONALISTAS,RUA REVOLUCAO NATIVISTA DE 1817,2016-02-22 17:30:00,2,Colisao,1,0,1,0,0,0,0,1,0,0,0,0,0,0,0,0,0,0,0
21201,D021600066,-23.570629999999998,-46.58726,AV PAES DE BARROS,nan,2016-02-19 10:40:00,2,Colisao,1,0,1,0,0,0,0,1,0,0,0,0,0,0,0,0,0,0,0
21202,D021600067,-23.553,-46.63707,AV PROF MANUEL JOSE CHAVES,RUA BANIBAS,2016-02-01 15:19:00,2,Colisao,1,0,1,0,0,0,1,0,0,0,0,0,0,0,0,0,0,0,0
21203,D021600068,-23.67182,-46.77352,AV COMEN SANT'ANNA,nan,2016-02-25 14:20:00,4,Atropelamento,1,0,0,0,0,0,0,1,0,0,0,0,0,0,0,0,0,0,0
21204,D021600069,-23.47934,-46.56735,AV EDU CHAVES,RUA BASILIO ALVES MORANGO,2016-02-28 15:57:00,2,Colisao,1,0,1,0,0,0,0,1,0,0,0,0,0,0,0,0,0,0,0
21205,D021600070,-23.562260000000002,-46.664609999999996,RUA AUGUSTA,ALAMEDA TIETE,2016-02-15 22:20:00,2,Colisao,1,0,1,0,0,0,0,1,0,0,0,0,0,0,0,0,0,0,0
21206,D021600071,-23.614639999999998,-46.65953,AV MOREIRA GUIMARAES,nan,2016-02-11 12:35:00,2,Sem Informacao,1,0,1,0,0,0,0,1,0,0,0,0,0,0,0,0,0,0,0
21207,D021600072,-23.64782,-46.784620000000004,RUA KOTO MITSUTANI,nan,2016-02-09 19:29:00,2,Choque,2,0,1,0,0,0,0,0,0,0,0,0,0,0,0,0,0,0,0
21208,D021600073,-23.61134,-46.63035,AV BOSQUE DA SAUDE,nan,2016-02-18 23:24:00,2,Colisao,1,0,1,0,0,0,0,1,0,0,0,0,0,0,0,0,0,0,0
21209,D021600074,-23.50481,-46.500840000000004,RUA BOLIVAR RIBEIRO BOAVENTURA,nan,2016-02-04 18:30:00,4,Atropelamento,1,0,0,1,0,0,0,0,0,0,0,0,0,0,0,0,0,0,0
21210,D021600075,-23.64757,-46.78689,ESTRADA PIRAJUSSARA-VALO VELHO,nan,2016-02-28 00:30:00,2,Colisao,1,0,1,0,0,0,0,1,0,0,0,0,0,0,0,0,0,0,0
21211,D021600076,-23.734779999999997,-46.68175,AV JOAQUIM NAPOLEAO MACHADO,nan,2016-02-04 21:22:00,2,Queda moto/bicicleta,1,0,0,0,0,0,0,1,0,0,0,0,0,0,0,0,0,0,0
21212,D021600077,-23.50521,-46.60415,RUA MARIA CANDIDA,AV JOAQUINA RAMALHO,2016-02-18 17:30:00,2,Colisao traseira,1,0,1,0,0,0,0,1,0,0,0,0,0,0,0,0,0,0,0
21213,D021600078,-23.47344,-46.6671,AV PARADA PINTO,nan,2016-02-15 17:10:00,4,Atropelamento,1,0,0,0,0,0,0,1,0,0,0,0,0,0,0,0,0,0,0
21214,D021600079,-23.64485,-46.72554,PONTE JOAO DIAS,nan,2016-02-23 07:20:00,2,Colisao frontal,1,0,1,0,0,0,0,1,0,0,0,0,0,0,0,0,0,0,0
21215,D021600080,-23.632460000000002,-46.668659999999996,AV WASHINGTON LUIS,nan,2016-02-09 02:00:00,2,Queda moto/bicicleta,0,1,0,0,0,0,0,1,0,0,0,0,0,0,0,0,0,0,0
21216,D021600081,-23.54199,-46.5494,RUA GONCALO NUNES,RUA CANTAGALO,2016-02-19 12:00:00,2,Colisao,1,0,2,1,0,0,0,0,0,0,0,0,0,0,0,0,0,0,0
21217,D021600082,-23.73795,-46.79005,ESTRADA M'BOI MIRIM,nan,2016-02-09 16:30:00,2,Colisao,2,0,1,0,0,0,0,1,0,0,0,0,0,0,0,0,0,0,0
21218,D021600083,-23.541539999999998,-46.53585,AV ARICANDUVA,nan,2016-02-13 11:20:00,2,Colisao,1,0,1,0,0,0,0,1,0,0,0,0,0,0,0,0,0,0,0
21219,D021600084,-23.63286,-46.64524,AV ENG ARMANDO DE ARRUDA PEREIRA,nan,2016-02-26 16:08:00,2,Sem Informacao,1,0,1,0,0,0,0,1,0,0,0,0,0,0,0,0,0,0,0
21220,D021600085,-23.41621,-46.5847,AV CEL SEZEFREDO FAGUNDES,nan,2016-02-21 17:30:00,2,Capotamento,2,0,1,0,0,0,0,0,0,0,0,0,0,0,0,0,0,0,0
21221,D021600086,-23.60146,-46.665929999999996,AV LAVANDISCA,nan,2016-02-02 20:14:00,2,Queda ocupante fora,1,0,0,0,0,0,0,0,0,0,1,0,0,0,0,0,0,0,0
21222,D021600087,-23.63523,-46.72116,AV MARGINAL DO RIO PINHEIROS (SYL,nan,2016-02-18 16:10:00,4,Atropelamento,1,0,0,0,0,0,0,1,0,0,0,0,0,0,0,0,0,0,0
21223,D021600088,-23.71198,-46.69919,AV SEN TEOTONIO VILELA,nan,2016-02-26 10:20:00,2,Colisao lateral,1,0,1,0,0,0,0,1,0,0,0,0,0,0,0,0,0,0,0
21224,D021600089,-23.4829,-46.613459999999996,AV NOVA CANTAREIRA,nan,2016-02-24 21:10:00,2,Colisao,1,0,1,0,0,0,0,1,0,0,0,0,0,0,0,0,0,0,0
21225,D021600090,-23.48384,-46.63707,AV ENG CAETANO ALVARES,nan,2016-02-12 17:50:00,4,Atropelamento,2,0,0,0,0,0,0,1,0,0,0,0,0,0,0,0,0,0,0
21226,D021600091,-23.514429999999997,-46.584540000000004,RUA GAVEA,nan,2016-02-24 16:40:00,4,Atropelamento,1,0,1,0,0,0,0,0,0,0,0,0,0,0,0,0,0,0,0
21227,D021600092,-23.68531,-46.6807,AV NSRA DO SABARA,nan,2016-02-20 15:23:00,2,Colisao,2,0,1,0,0,0,0,1,0,0,0,0,0,0,0,0,0,0,0
21228,D021600093,-23.54804,-46.6255,VIADUTO ANTONIO NAKASHIMA,nan,2016-02-19 08:51:00,4,Atropelamento,1,0,1,0,0,0,0,0,0,0,0,0,0,0,0,0,0,0,0
21229,D021600094,-23.69722,-46.63351,RUA PROF CARDOZO DE MELLO NETO,nan,2016-02-12 08:08:00,2,Colisao,1,0,1,0,0,0,0,1,0,0,0,0,0,0,0,0,0,0,0
21230,D021600095,-23.56399,-46.493990000000004,RUA BOM JESUS DO MONTE,nan,2016-02-28 20:40:00,4,Atropelamento,1,0,0,0,0,0,0,0,0,0,0,0,0,0,0,0,0,0,1
21231,D021600096,-23.50579,-46.643,AV BRAZ LEME,nan,2016-02-05 13:58:00,2,Choque,1,0,0,0,0,0,0,1,0,0,0,0,0,0,0,0,0,0,0
21232,D021600097,-23.61187,-46.47614,AV SAPOPEMBA,AV ADELIA CHOHFI,2016-02-21 21:52:00,4,Atropelamento,1,0,1,0,0,0,0,0,0,0,0,0,0,0,0,0,0,0,0
21233,D021600098,-23.63121,-46.73632,AV GIOVANNI GRONCHI,RUA NELSON GAMA DE OLIVEIRA,2016-02-13 02:50:00,2,Colisao,3,0,0,0,0,0,0,2,0,0,0,0,0,0,0,0,0,0,0
21234,D021600099,-23.61008,-46.66822,AV DOS IMARES,AV IBIRAPUERA,2016-02-14 01:00:00,2,Colisao,1,0,2,0,0,0,0,0,0,0,0,0,0,0,0,0,0,0,0
21235,D021600100,-23.53528,-46.58262,AV CELSO GARCIA,nan,2016-02-19 01:00:00,2,Queda moto/bicicleta,1,0,0,0,0,0,0,1,0,0,0,0,0,0,0,0,0,0,0
21236,D021600101,-23.582420000000003,-46.70227,AV S VALERIO,RUA ILIMANI,2016-02-02 11:20:00,2,Colisao,1,0,1,0,0,0,0,1,0,0,0,0,0,0,0,0,0,0,0
21237,D021600102,-23.522489999999998,-46.65912,VIADUTO PACAEMBU,nan,2016-02-19 13:37:00,2,Colisao traseira,1,0,0,0,0,0,0,1,0,0,0,0,0,1,0,0,0,0,0
21238,D021600103,-23.50064,-46.43985,AV NORDESTINA,nan,2016-02-23 13:43:00,2,Colisao,1,0,1,0,0,0,0,1,0,0,0,0,0,0,0,0,0,0,0
21239,D021600104,-23.66871,-46.73344,AV GUARAPIRANGA,nan,2016-02-10 14:30:00,2,Colisao,1,0,1,0,0,0,0,1,0,0,0,0,0,0,0,0,0,0,0
21240,D021600105,-23.4867,-46.618990000000004,AV NOVA CANTAREIRA,nan,2016-02-24 08:35:00,2,Queda moto/bicicleta,1,0,0,0,0,0,0,1,0,0,0,0,0,0,0,0,0,0,0
21241,D021600106,-23.75434,-46.68782,RUA S CAETANO DO SUL,nan,2016-02-07 11:30:00,2,Queda moto/bicicleta,1,0,0,0,0,0,0,1,0,0,0,0,0,0,0,0,0,0,0
21242,D021600107,-23.54994,-46.48618,AV WALDEMAR TIETZ,nan,2016-02-26 18:31:00,4,Atropelamento,1,0,1,0,0,0,0,0,0,0,0,0,0,0,0,0,0,0,0
21243,D021600108,-23.66776,-46.773270000000004,AV COMEN SANT'ANNA,nan,2016-02-27 05:00:00,2,Colisao,1,0,0,0,0,0,0,2,0,0,1,0,0,0,0,0,0,0,0
21244,D021600109,-23.57477,-46.53,AV CIPRIANO RODRIGUES,nan,2016-02-05 14:50:00,2,Colisao,1,0,1,0,0,0,0,1,0,0,0,0,0,0,0,0,0,0,0
21245,D021600110,-23.477629999999998,-46.66248,AV IMIRIM,nan,2016-02-04 18:20:00,4,Atropelamento,1,0,1,0,0,0,0,0,0,0,0,0,0,0,0,0,0,0,0
21246,D021600111,-23.581,-46.659490000000005,AV PEDRO ALVARES CABRAL,nan,2016-02-03 12:00:00,2,Colisao,1,0,1,0,0,0,0,1,0,0,0,0,0,0,0,0,0,0,0
21247,D021600112,-23.72232,-46.78524,ESTRADA M'BOI MIRIM,nan,2016-02-21 10:00:00,4,Atropelamento,1,0,1,0,0,0,0,0,0,0,0,0,0,0,0,0,0,0,0
21248,D021600113,-23.58653,-46.68983,PRACA NICOLAU DAVID,nan,2016-02-24 06:50:00,2,Queda moto/bicicleta,1,0,0,0,0,0,0,1,0,0,0,0,0,0,0,0,0,0,0
21249,D021600114,-23.50035,-46.48754,AV BOTURUSSU,nan,2016-02-05 07:00:00,2,Colisao,1,0,1,1,0,0,0,0,0,0,0,0,0,0,0,0,0,0,0
21250,D021600115,-23.5921,-46.444340000000004,AV JACU-PESSEGO/NOVA TRABALHADORE,nan,2016-02-01 06:20:00,4,Atropelamento,0,1,0,0,0,0,0,0,0,0,0,0,0,1,0,0,0,0,0
21251,D021600116,-23.66154,-46.788129999999995,AV DOM RODRIGO SANCHES,RUA JOAO DA CRUZ E SOUSA,2016-02-02 21:19:00,4,Atropelamento,1,0,1,0,0,0,0,0,0,0,0,0,0,0,0,0,0,0,0
21252,D021600117,-23.51807,-46.45515,AV JACU-PESSEGO/NOVA TRABALHADORE,nan,2016-02-27 03:30:00,2,Colisao lateral,2,0,1,0,0,0,0,0,0,0,0,0,0,1,0,0,0,0,0
21253,D021600118,-23.50062,-46.60025,AV CONCEICAO (ES.),nan,2016-02-08 05:45:00,2,Choque,2,0,1,0,0,0,0,0,0,0,0,0,0,0,0,0,0,0,0
21254,D021600119,-23.54701,-46.68894,RUA HEITOR PENTEADO,nan,2016-02-16 06:20:00,2,Queda moto/bicicleta,1,0,0,0,0,0,0,1,0,0,0,0,0,0,0,0,0,0,0
21255,D021600120,-23.66699,-46.71112,AV ATLANTICA ANT. ROBERT KENNEDY,nan,2016-02-20 04:30:00,2,Colisao traseira,1,0,2,0,0,0,0,0,0,0,0,0,0,0,0,0,0,0,0
21256,D021600121,-23.475,-46.56051,VIA FERNAO DIAS,nan,2016-02-19 08:00:00,2,Choque,0,1,1,0,0,0,0,0,0,0,0,0,0,0,0,0,0,0,0
21257,D021600122,-23.63384,-46.692809999999994,AV ADOLFO PINHEIRO,nan,2016-02-10 06:15:00,2,Queda ocupante dentro,1,0,0,0,0,0,0,0,0,0,1,0,0,0,0,0,0,0,0
21258,D021600123,-23.52613,-46.57977,AV MORVAN DIAS DE FIGUEIREDO,nan,2016-02-18 11:50:00,2,Sem Informacao,1,0,0,0,0,0,0,1,0,0,0,0,0,1,0,0,0,0,0
21259,D021600124,-23.7459,-46.70743,AV SEN TEOTONIO VILELA,nan,2016-02-27 15:30:00,2,Colisao,1,0,1,0,0,0,0,1,0,0,0,0,0,0,0,0,0,0,0
21260,D021600125,-23.5342,-46.5779,RUA JACIRENDI,nan,2016-02-06 20:30:00,2,Colisao,1,0,1,0,0,0,0,1,0,0,0,0,0,0,0,0,0,0,0
21261,D021600126,-23.72246,-46.785270000000004,ESTRADA M'BOI MIRIM,nan,2016-02-24 15:36:00,2,Colisao,1,0,0,1,0,0,0,1,0,0,0,0,0,0,0,0,0,0,0
21262,D021600127,-23.53276,-46.65717,AV GAL OLIMPIO DA SILVEIRA,nan,2016-02-22 21:43:00,4,Atropelamento,1,0,0,0,0,0,0,0,0,0,1,0,0,0,0,0,0,0,0
21263,D021600128,-23.555039999999998,-46.662279999999996,RUA DA CONSOLACAO,nan,2016-02-22 21:45:00,2,Colisao,1,0,1,0,0,0,1,0,0,0,0,0,0,0,0,0,0,0,0
21264,D021600129,-23.5505,-46.594809999999995,AV CASSANDOCA,nan,2016-02-20 18:30:00,2,Colisao frontal,1,0,1,0,0,0,0,1,0,0,0,0,0,0,0,0,0,0,0
21265,D021600130,-23.54195,-46.58025,RUA MELO FREIRE,nan,2016-02-09 04:30:00,2,Colisao traseira,1,0,2,0,0,0,0,0,0,0,0,0,0,0,0,0,0,0,0
21266,D021600131,-23.43776,-46.78791,RUA SUCUNDURI,nan,2016-02-20 20:06:00,4,Atropelamento,2,0,1,0,0,0,0,0,0,0,0,0,0,0,0,0,0,0,0
21267,D021600132,-23.48718,-46.66571,RUA BARTOLOMEU BERMEJO,nan,2016-02-23 20:22:00,4,Atropelamento,1,0,1,0,0,0,0,0,0,0,0,0,0,0,0,0,0,0,0
21268,D021600133,-23.59222,-46.444390000000006,AV JACU-PESSEGO/NOVA TRABALHADORE,nan,2016-02-15 17:12:00,2,Choque,1,0,1,0,0,0,0,0,0,0,0,0,0,0,0,0,0,0,0
21269,D021600134,-23.43542,-46.728390000000005,ESTRADA TAIPAS,nan,2016-02-07 20:55:00,4,Atropelamento,1,0,0,0,0,0,0,0,0,0,0,0,0,0,0,0,0,0,1
21270,D021600135,-23.80009,-46.73535,VIA RODOANEL MARIO COVAS,nan,2016-02-22 06:10:00,2,Colisao frontal,1,0,1,0,0,0,0,0,0,0,0,0,0,1,0,0,0,0,0
21271,D021600136,-23.69452,-46.76291,ESTRADA DA BARONESA,nan,2016-02-19 06:30:00,2,Colisao,3,0,0,0,0,0,0,2,0,0,0,0,0,0,0,0,0,0,0
21272,D021600137,-23.59186,-46.54757,AV DO ORATORIO,nan,2016-02-23 14:30:00,2,Colisao traseira,1,0,2,0,0,0,0,0,0,0,0,0,0,0,0,0,0,0,0
21273,D021600138,-23.6843,-46.63987,AV PEDRO DE AVOS,nan,2016-02-04 14:31:00,4,Atropelamento,1,0,1,0,0,0,0,0,0,0,0,0,0,0,0,0,0,0,0
21274,D021600139,-23.552020000000002,-46.639109999999995,RUA MARIA PAULA,nan,2016-02-20 06:00:00,2,Colisao traseira,1,0,1,0,0,0,0,1,0,0,0,0,0,0,0,0,0,0,0
21275,D021600140,-23.468020000000003,-46.58423,AV GUAPIRA,nan,2016-02-11 19:50:00,2,Colisao,2,0,1,0,0,0,0,1,0,0,0,0,0,0,0,0,0,0,0
21276,D021600141,-23.74505,-46.69935,AV PREF PAULO LAURO,nan,2016-02-23 19:33:00,4,Atropelamento,1,0,0,0,0,0,0,0,0,0,0,0,0,0,0,0,0,0,1
21277,D021600142,-23.65306,-46.78944,RUA ANDRE SOARES,nan,2016-02-13 09:40:00,2,Queda ocupante dentro,1,0,0,0,0,0,0,0,0,0,1,0,0,0,0,0,0,0,0
21278,D021600143,-23.64987,-46.72139,RUA BENTO BRANCO DE ANDRADE FILHO,nan,2016-02-02 17:00:00,2,Colisao traseira,1,0,1,0,0,0,0,1,0,0,0,0,0,0,0,0,0,0,0
21279,D021600144,-23.64591,-46.75258,AV CARLOS CALDEIRA FILHO,nan,2016-02-13 18:00:00,2,Colisao traseira,1,0,1,0,0,0,0,1,0,0,0,0,0,0,0,0,0,0,0
21280,D021600145,-23.644779999999997,-46.72011,AV JOAO DIAS,nan,2016-02-07 19:21:00,2,Choque,1,0,0,0,0,0,0,1,0,0,0,0,0,0,0,0,0,0,0
21281,D021600146,-23.49793,-46.39628,AV MAL TITO,nan,2016-02-03 19:15:00,2,Colisao,1,0,0,0,0,0,0,0,0,0,2,0,0,0,0,0,0,0,0
21282,D021600147,-23.51534,-46.72871,AV MARGINAL DO RIO TIETE,nan,2016-02-10 12:20:00,2,Colisao,1,0,0,1,0,0,0,1,0,0,0,0,0,0,0,0,0,0,0
21283,D021600148,-23.620520000000003,-46.45626,RUA CINIRA POLONIO,nan,2016-02-21 06:45:00,2,Colisao,2,0,2,0,0,0,0,0,0,0,0,0,0,0,0,0,0,0,0
21284,D021600149,-23.59429,-46.4239,AV RAGUEB CHOHFI,nan,2016-02-21 03:30:00,2,Choque,0,1,1,0,0,0,0,0,0,0,0,0,0,0,0,0,0,0,0
21285,D021600150,-23.55451,-46.63745,AV VINTE E TRES DE MAIO,nan,2016-02-16 14:40:00,2,Colisao,3,0,0,1,0,0,0,2,0,0,0,0,0,0,0,0,0,0,0
21286,D021600151,-23.59754,-46.68731,AV DR CARDOSO DE MELO,nan,2016-02-16 19:30:00,2,Colisao,1,0,1,0,0,0,0,1,0,0,0,0,0,0,0,0,0,0,0
21287,D021600152,-23.75875,-46.66515,AV DONA BELMIRA MARIN,nan,2016-02-06 04:00:00,2,Choque,2,0,1,0,0,0,0,0,0,0,0,0,0,0,0,0,0,0,0
21288,D021600153,-23.58634,-46.724070000000005,AV PROF FRANCISCO MORATO,AV JORGE JOAO SAAD,2016-02-29 08:33:00,2,Sem Informacao,1,0,0,0,0,0,0,1,0,0,1,0,0,0,0,0,0,0,0
21289,D021600154,-23.50464,-46.70643,AV GAL EDGAR FACO,nan,2016-02-12 07:40:00,2,Colisao traseira,1,0,1,0,0,0,0,1,0,0,0,0,0,0,0,0,0,0,0
21290,D021600155,-23.43001,-46.71409,AV FERNANDO MENDES DE ALMEIDA (JA,nan,2016-02-12 22:30:00,2,Colisao,2,0,0,0,0,0,0,1,0,0,0,0,0,0,0,0,0,0,1
21291,D021600156,-23.54068,-46.58919,RUA HERVAL,nan,2016-02-02 08:00:00,4,Atropelamento,1,0,0,0,0,0,0,1,0,0,0,0,0,0,0,0,0,0,0
21292,D021600157,-23.67676,-46.65477,RUA PROF QUINTINO MINGOIA,nan,2016-02-13 19:00:00,2,Queda moto/bicicleta,1,0,0,0,0,0,0,1,0,0,0,0,0,0,0,0,0,0,0
21293,D021600158,-23.63314,-46.63748,AV DO CAFE,nan,2016-02-15 10:17:00,2,Colisao lateral,1,0,1,0,0,0,0,1,0,0,0,0,0,0,0,0,0,0,0
21294,D021600159,-23.47154,-46.61265,RUA EDUARDO VICENTE NASSER,nan,2016-02-21 04:30:00,2,Colisao,1,0,1,0,0,0,0,1,0,0,0,0,0,0,0,0,0,0,0
21295,D021600160,-23.675279999999997,-46.69015,RUA ARNALDO MAGNICARO,nan,2016-02-15 08:00:00,2,Colisao,2,0,0,1,0,0,0,1,0,0,0,0,0,0,0,0,0,0,0
21296,D021600161,-23.5634,-46.49025,AV GAMELEIRA BRANCA,nan,2016-02-21 05:33:00,2,Colisao traseira,1,0,0,0,0,0,0,1,0,0,0,0,0,0,0,0,0,0,1
21297,D021600162,-23.684929999999998,-46.63747,AV ANGELO CRISTIANINI,nan,2016-02-06 18:00:00,2,Colisao,1,0,1,0,0,0,0,1,0,0,0,0,0,0,0,0,0,0,0
21298,D021600163,-23.79961,-46.7322,AV SADAMU INOUE,nan,2016-02-21 20:25:00,2,Colisao,1,0,2,0,0,0,0,0,0,0,0,0,0,0,0,0,0,0,0
21299,D021600164,-23.82244,-46.75222,ESTRADA VELHA DO JUSA,nan,2016-02-20 07:30:00,2,Queda moto/bicicleta,1,0,0,0,0,0,0,1,0,0,0,0,0,0,0,0,0,0,0
21300,D021600165,-23.51735,-46.48202,ESTRADA DE MOGI DAS CRUZES,nan,2016-02-23 08:30:00,2,Colisao traseira,2,0,0,0,0,0,0,1,0,0,1,0,0,0,0,0,0,0,0
21301,D021600166,-23.51267,-46.43294,AV NORDESTINA,nan,2016-02-28 21:00:00,4,Atropelamento,1,0,1,0,0,0,0,0,0,0,0,0,0,0,0,0,0,0,0
21302,D021600167,-23.457710000000002,-46.66943,RUA ANTONIO LOPES DE BARROS,nan,2016-02-09 16:00:00,4,Atropelamento,1,0,0,0,0,0,0,1,0,0,0,0,0,0,0,0,0,0,0
21303,D021600168,-23.728720000000003,-46.69875,AV SEN TEOTONIO VILELA,nan,2016-02-08 06:00:00,2,Colisao lateral,2,0,0,0,0,0,0,1,0,0,0,0,0,1,0,0,0,0,0
21304,D021600169,-23.50587,-46.6421,AV BRAZ LEME,nan,2016-02-10 20:25:00,4,Atropelamento,1,0,1,0,0,0,0,0,0,0,0,0,0,0,0,0,0,0,0
21305,D021600170,-23.50007,-46.60378,AV CONCEICAO (ES.),nan,2016-02-11 18:43:00,2,Colisao,1,0,2,0,0,0,1,0,0,0,0,0,0,0,0,0,0,0,0
21306,D021600171,-23.66116,-46.7812,AV DOM RODRIGO SANCHES,RUA CANTIGAS DE SAUDADE,2016-02-09 14:40:00,2,Colisao,1,0,1,0,0,0,0,1,0,0,0,0,0,0,0,0,0,0,0
21307,D021600172,-23.67105,-46.67662,AV JOAO PEIXOTO VIEGAS,nan,2016-02-24 14:00:00,2,Colisao,1,0,1,0,0,0,0,1,0,0,0,0,0,0,0,0,0,0,0
21308,D021600173,-23.55653,-46.6382,AV VINTE E TRES DE MAIO,nan,2016-02-11 06:35:00,2,Colisao traseira,1,0,0,1,0,0,0,1,0,0,0,0,0,0,0,0,0,0,0
21309,D021600174,-23.57047,-46.587740000000004,AV PAES DE BARROS,nan,2016-02-16 17:08:00,2,Colisao,1,0,1,0,0,0,0,1,0,0,0,0,0,0,0,0,0,0,0
21310,D021600175,-23.63559,-46.616890000000005,RUA PAULO DE MORAIS,nan,2016-02-10 07:20:00,2,Queda moto/bicicleta,1,0,0,0,0,0,0,1,0,0,0,0,0,0,0,0,0,0,0
21311,D021600176,-23.58931,-46.68159,AV BRIG FARIA LIMA,nan,2016-02-21 06:00:00,4,Atropelamento,2,0,0,0,0,0,0,1,0,0,0,0,0,0,0,0,0,0,0
21312,D021600177,-23.57603,-46.58733,AV PAES DE BARROS,nan,2016-02-20 00:21:00,2,Choque,2,0,0,0,0,0,0,1,0,0,0,0,0,0,0,0,0,0,0
21313,D021600178,-23.59235,-46.75438,RUA ALESSANDRO BIBIENA,nan,2016-02-28 04:43:00,4,Atropelamento,1,1,0,0,0,0,0,1,0,0,0,0,0,0,0,0,0,0,0
21314,D021600179,-23.444760000000002,-46.7141,RUA JOAO AMADO COUTINHO,nan,2016-02-13 14:00:00,2,Colisao,1,0,0,0,0,0,0,1,0,0,0,0,0,0,0,0,0,0,1
21315,D021600180,-23.60647,-46.7253,AV GIOVANNI GRONCHI,nan,2016-02-24 15:20:00,2,Colisao,1,0,0,1,0,0,0,1,0,0,0,0,0,0,0,0,0,0,0
21316,D021600181,-23.65609,-46.66044,RUA CALASANS,nan,2016-02-13 00:47:00,2,Queda moto/bicicleta,2,0,0,0,0,0,0,1,0,0,0,0,0,0,0,0,0,0,0
21317,D021600182,-23.56426,-46.411970000000004,RUA INACIO MONTEIRO,nan,2016-02-23 10:30:00,2,Colisao frontal,1,0,0,0,0,0,1,0,0,0,1,0,0,0,0,0,0,0,0
21318,D021600183,-23.62536,-46.46017,RUA SEVERINO DE FREITAS PRESTES,nan,2016-02-16 11:00:00,4,Atropelamento,1,0,1,0,0,0,0,0,0,0,0,0,0,0,0,0,0,0,0
21319,D021600184,-23.66001,-46.66155,RUA CD MOREIRA LIMA,nan,2016-02-29 07:36:00,2,Colisao lateral,1,0,0,0,0,0,0,1,0,1,0,0,0,0,0,0,0,0,0
21320,D021600185,-23.689510000000002,-46.65976,RUA PEDRO NOGUEIRA DE PAZES,nan,2016-02-13 14:00:00,4,Atropelamento,1,0,0,0,0,0,0,1,0,0,0,0,0,0,0,0,0,0,0
21321,D021600186,-23.54006,-46.74223,AV ENG BILLINGS,nan,2016-02-10 14:30:00,2,Colisao,1,0,1,0,0,0,0,1,0,0,0,0,0,0,0,0,0,0,0
21322,D021600187,-23.75179,-46.70347,RUA PROF ACACIO DE PAULA FERREIRA,nan,2016-02-23 03:00:00,2,Queda moto/bicicleta,1,0,0,0,0,0,0,1,0,0,0,0,0,0,0,0,0,0,0
21323,D021600188,-23.544810000000002,-46.52978,AV ARICANDUVA,nan,2016-02-08 15:30:00,2,Colisao,1,0,0,0,0,0,0,1,0,0,0,0,0,0,0,0,0,0,1
21324,D021600189,-23.53133,-46.520309999999995,AV ANTONIO ESTEVAO DE CARVALHO,nan,2016-02-16 07:47:00,2,Colisao,1,0,0,0,0,0,0,1,0,0,1,0,0,0,0,0,0,0,0
21325,D021600190,-23.56723,-46.424820000000004,RUA PAULO GRACINDO,nan,2016-02-22 08:00:00,2,Colisao,1,0,2,0,0,0,0,0,0,0,0,0,0,0,0,0,0,0,0
21326,D021600191,-23.50774,-46.62519,AV CRUZEIRO DO SUL,nan,2016-02-16 05:50:00,2,Colisao lateral,1,0,0,1,0,0,0,1,0,0,0,0,0,0,0,0,0,0,0
21327,D021600192,-23.75355,-46.75563,AV PROF HERMANN VAN IHERING (EST JACEG,nan,2016-02-28 12:50:00,2,Colisao,1,0,1,0,0,0,1,0,0,0,0,0,0,0,0,0,0,0,0
21328,D021600193,-23.5471,-46.642109999999995,RUA DA CONSOLACAO,nan,2016-02-08 00:02:00,4,Atropelamento,1,0,0,0,0,0,0,0,0,0,0,0,0,0,0,0,0,0,1
21329,D021600194,-23.616139999999998,-46.720890000000004,AV HEBE CAMARGO,nan,2016-02-07 18:30:00,2,Queda moto/bicicleta,1,0,0,0,0,0,0,1,0,0,0,0,0,0,0,0,0,0,0
21330,D021600195,-23.55275,-46.406279999999995,AV MIGUEL ACHIOLE DA FONCECA,nan,2016-02-25 16:46:00,2,Colisao,1,0,1,0,0,0,0,1,0,0,0,0,0,0,0,0,0,0,0
21331,D021600196,-23.59035,-46.67115,RUA JACQUES FELIX,nan,2016-02-17 17:40:00,2,Colisao,1,0,1,0,0,0,0,1,0,0,0,0,0,0,0,0,0,0,0
21332,D021600197,-23.51373,-46.6018,RUA S QUIRINO,nan,2016-02-07 21:21:00,2,Colisao,1,0,1,0,0,0,0,1,0,0,0,0,0,0,0,0,0,0,0
21333,D021600198,-23.52208,-46.61091,PONTE DA VILA GUILHERME,nan,2016-02-01 08:00:00,2,Colisao traseira,1,0,0,0,0,0,0,1,0,0,0,0,0,0,1,0,0,0,0
21334,D021600199,-23.65061,-46.77919,AV CARLOS LACERDA,nan,2016-02-06 17:40:00,2,Colisao,1,0,0,0,0,0,0,1,0,0,0,0,0,1,0,0,0,0,0
21335,D021600200,-23.70194,-46.63917,RUA DR CARLOS DE REZENDE ENOUT,nan,2016-02-17 17:45:00,2,Colisao,1,0,1,0,0,0,0,1,0,0,0,0,0,0,0,0,0,0,0
21336,D021600201,-23.55152,-46.757529999999996,AV CORIFEU DE AZEVEDO MARQUES,nan,2016-02-26 08:56:00,2,Sem Informacao,2,0,1,0,0,0,0,1,0,0,0,0,0,0,0,0,0,0,0
21337,D021600202,-23.546670000000002,-46.54233,AV CONS CARRAO,nan,2016-02-17 18:10:00,2,Colisao,1,0,1,1,0,0,0,0,0,0,0,0,0,0,0,0,0,0,0
21338,D021600203,-23.52754,-46.46483,AV ERNESTO SOUZA CRUZ,nan,2016-02-06 20:00:00,2,Colisao,2,0,1,0,0,0,0,1,0,0,0,0,0,0,0,0,0,0,0
21339,D021600204,-23.557760000000002,-46.74541,AV JAGUARE,nan,2016-02-20 02:30:00,2,Colisao lateral,0,1,0,0,0,0,0,1,0,0,0,0,0,0,0,0,0,0,1
21340,D021600205,-23.62588,-46.44578,AV DOS SERTANISTAS,nan,2016-02-23 06:45:00,2,Colisao frontal,1,0,1,0,0,0,0,1,0,0,0,0,0,0,0,0,0,0,0
21341,D021600206,-23.53801,-46.644940000000005,AV DUQ DE CAXIAS,nan,2016-02-01 19:00:00,2,Colisao,1,0,1,0,0,0,0,0,0,0,0,1,0,0,0,0,0,0,0
21342,D021600207,-23.47997,-46.6211,AV AGUA FRIA,nan,2016-02-13 13:13:00,2,Sem Informacao,1,0,1,0,0,0,0,1,0,0,0,0,0,0,0,0,0,0,0
21343,D021600208,-23.89956,-46.72651,ESTRADA ENG MARCILAC,nan,2016-02-20 17:40:00,4,Atropelamento,1,0,0,0,0,0,0,0,0,0,0,0,0,0,0,0,0,0,1
21344,D021600209,-23.66163,-46.69197,AV NSRA DO SABARA,nan,2016-02-18 09:00:00,2,Colisao,1,0,1,0,0,0,0,1,0,0,0,0,0,0,0,0,0,0,0
21345,D021600210,-23.49671,-46.69793,AV ITABERABA,nan,2016-02-27 07:35:00,2,Queda moto/bicicleta,1,0,0,0,0,0,0,1,0,0,0,0,0,0,0,0,0,0,0
21346,D021600211,-23.51211,-46.66621,AV ORDEM E PROGRESSO,nan,2016-02-15 10:50:00,2,Colisao,1,0,1,0,0,0,0,1,0,0,0,0,0,0,0,0,0,0,0
21347,D021600212,-23.494410000000002,-46.4275,AV MAL TITO,nan,2016-02-26 18:20:00,2,Colisao,1,0,1,0,0,0,0,1,0,0,0,0,0,0,0,0,0,0,0
21348,D021600213,-23.46835,-46.573809999999995,AV EDU CHAVES,nan,2016-02-06 08:20:00,2,Queda ocupante dentro,1,0,0,0,0,0,0,0,0,0,1,0,0,0,0,0,0,0,0
21349,D021600214,-23.58576,-46.68667,RUA BRIG HAROLDO VELOSO,RUA TABAPUA,2016-02-04 18:27:00,2,Colisao,1,0,0,1,0,0,0,1,0,0,0,0,0,0,0,0,0,0,0
21350,D021600215,-23.63887,-46.62997,VIA DOS IMIGRANTES,nan,2016-02-25 20:04:00,4,Atropelamento,1,1,0,0,0,0,0,1,0,0,0,0,0,0,0,0,0,0,0
21351,D021600216,-23.53862,-46.62729,AV DO ESTADO,nan,2016-02-25 15:20:00,4,Atropelamento,1,0,0,0,0,0,0,1,0,0,0,0,0,0,0,0,0,0,0
21352,D021600217,-23.57157,-46.613479999999996,RUA ARI CAJADO,nan,2016-02-18 05:50:00,2,Queda moto/bicicleta,1,0,0,0,0,0,0,1,0,0,0,0,0,0,0,0,0,0,0
21353,D021600218,-23.63385,-46.72781,RUA JOSE RAMON URTIZA,RUA RIBEIRAO DA PRATA,2016-02-19 11:42:00,2,Sem Informacao,1,0,1,0,0,0,0,1,0,0,0,0,0,0,0,0,0,0,0
21354,D021600219,-23.56638,-46.65371,ALAMEDA JAU,ALAMEDA CAMPINAS,2016-02-10 21:47:00,2,Colisao traseira,1,0,1,0,0,0,0,1,0,0,0,0,0,0,0,0,0,0,0
21355,D021600220,-23.76388,-46.687509999999996,RUA CEL JOAO CABANAS,nan,2016-02-02 16:52:00,2,Colisao,2,0,0,0,0,0,1,1,0,0,0,0,0,0,0,0,0,0,0
21356,D021600221,-23.5207,-46.57568,RUA SANTO DIAS,nan,2016-02-27 22:00:00,4,Atropelamento,2,0,0,0,0,0,0,1,0,0,0,0,0,0,0,0,0,0,0
21357,D021600222,-23.45753,-46.753029999999995,VIA DOS BANDEIRANTES,nan,2016-02-10 20:18:00,4,Atropelamento,0,1,1,0,0,0,0,0,0,0,0,0,0,0,0,0,0,0,0
21358,D021600223,-23.60754,-46.49736,RUA FRANCESCO USPER,nan,2016-02-19 08:45:00,2,Colisao,1,0,1,0,0,0,0,1,0,0,0,0,0,0,0,0,0,0,0
21359,D021600224,-23.445520000000002,-46.715579999999996,RUA LUCINDA SIMOES,nan,2016-02-27 22:00:00,2,Colisao,0,1,1,0,0,0,0,1,0,0,0,0,0,0,0,0,0,0,0
21360,D021600225,-23.52666,-46.45759,AV JACU-PESSEGO/NOVA TRABALHADORE,nan,2016-02-27 15:30:00,4,Atropelamento,1,0,1,0,0,0,0,0,0,0,0,0,0,0,0,0,0,0,0
21361,D021600226,-23.5769,-46.52922,RUA ALESSANDRO VERRI,nan,2016-02-15 03:00:00,4,Atropelamento,1,0,0,0,0,0,0,0,0,0,0,0,0,0,0,0,0,0,1
21362,D021600227,-23.5322,-46.61136,RUA JOAO BOEMER,RUA STA RITA,2016-02-13 07:07:00,2,Sem Informacao,2,0,1,0,0,0,0,1,0,0,0,0,0,0,0,0,0,0,0
21363,D021600228,-23.559829999999998,-46.58212,RUA JABOTICABAL,nan,2016-02-19 16:20:00,2,Colisao,1,0,1,0,0,0,0,1,0,0,0,0,0,0,0,0,0,0,0
21364,D021600229,-23.55827,-46.4806,RUA PEDRO DE LABATUT,nan,2016-02-07 23:00:00,2,Choque,1,0,1,0,0,0,0,0,0,0,0,0,0,0,0,0,0,0,0
21365,D021600230,-23.685129999999997,-46.78069,RUA EUSIMIO DA CRUZ BATISTA,nan,2016-02-28 22:00:00,2,Colisao,1,0,1,0,0,0,0,1,0,0,0,0,0,0,0,0,0,0,0
21366,D021600231,-23.48164,-46.60572,AV LUIZ DUMONT VILLARES,nan,2016-02-09 11:00:00,2,Queda ocupante dentro,1,0,0,0,0,0,0,0,0,0,1,0,0,0,0,0,0,0,0
21367,D021600232,-23.52243,-46.593090000000004,AV GUILHERME COTCHING,nan,2016-02-28 15:25:00,2,Sem Informacao,1,0,1,1,0,0,0,0,0,0,0,0,0,0,0,0,0,0,0
21368,D021600233,-23.66236,-46.70686,AV VITOR MANZINI,nan,2016-02-11 22:30:00,2,Colisao traseira,1,0,1,0,0,0,0,1,0,0,0,0,0,0,0,0,0,0,0
21369,D021600234,-23.64143,-46.64433,RUA TAQUARUCU,nan,2016-02-10 10:13:00,2,Colisao,1,0,1,0,0,0,0,1,0,0,0,0,0,0,0,0,0,0,0
21370,D021600235,-23.47618,-46.727779999999996,AV RAIMUNDO PEREIRA DE MAGAL.,nan,2016-02-07 20:30:00,2,Colisao lateral,1,0,1,0,0,0,0,1,0,0,0,0,0,0,0,0,0,0,0
21371,D021600236,-23.52115,-46.40905,RUA RECREIO,nan,2016-02-28 10:30:00,4,Atropelamento,1,0,1,0,0,0,0,0,0,0,0,0,0,0,0,0,0,0,0
21372,D021600237,-23.619239999999998,-46.66183,AV WASHINGTON LUIS,nan,2016-02-04 18:20:00,2,Colisao,1,0,1,0,0,0,0,1,0,0,0,0,0,0,0,0,0,0,0
21373,D021600238,-23.5556,-46.63684,RUA JACEGUAI,nan,2016-02-18 10:30:00,4,Atropelamento,1,0,0,1,0,0,0,1,0,0,0,0,0,0,0,0,0,0,0
21374,D021600239,-23.541079999999997,-46.57751,RUA MELO FREIRE,nan,2016-02-11 15:50:00,2,Colisao,1,0,1,0,0,0,0,1,0,0,0,0,0,0,0,0,0,0,0
21375,D021600240,-23.64687,-46.645509999999994,RUA CARMINE DI GENIO,nan,2016-02-25 09:00:00,4,Atropelamento,1,0,0,1,0,0,0,0,0,0,0,0,0,0,0,0,0,0,0
21376,D021600241,-23.52054,-46.56463,RUA DR VIDAL REIS,nan,2016-02-18 21:52:00,2,Colisao,1,0,0,2,0,0,0,0,0,0,0,0,0,0,0,0,0,0,0
21377,D021600242,-23.540020000000002,-46.705529999999996,RUA DR ALBERTO SEABRA,nan,2016-02-19 07:00:00,2,Colisao frontal,2,0,1,0,0,0,0,0,0,0,1,0,0,0,0,0,0,0,0
21378,D021600243,-23.594179999999998,-46.4231,AV RAGUEB CHOHFI,nan,2016-02-23 23:22:00,4,Atropelamento,2,0,0,0,0,0,0,1,0,0,0,0,0,0,0,0,0,0,0
21379,D021600244,-23.4712,-46.77623,VIA ANHANGUERA,nan,2016-02-12 10:00:00,2,Capotamento,0,3,1,0,0,0,0,0,0,0,0,0,0,0,0,0,0,0,0
21380,D021600245,-23.50045,-46.614329999999995,AV LUIZ DUMONT VILLARES,nan,2016-02-01 06:40:00,2,Queda moto/bicicleta,1,0,0,0,0,0,0,1,0,0,0,0,0,0,0,0,0,0,0
21381,D021600246,-23.8388,-46.735409999999995,ESTRADA ENG MARCILAC,nan,2016-02-14 09:12:00,2,Colisao,1,0,0,0,0,0,0,1,0,0,0,0,0,0,0,0,0,0,1
21382,D021600247,-23.60686,-46.67887,AV DOS BANDEIRANTES,nan,2016-02-07 08:03:00,2,Colisao traseira,1,0,0,0,0,0,0,2,0,0,0,0,0,0,0,0,0,0,0
21383,D021600248,-23.66589,-46.68995,AV NSRA DO SABARA,nan,2016-02-20 23:00:00,2,Colisao,1,0,0,0,0,0,0,2,0,0,0,0,0,0,0,0,0,0,0
21384,D021600249,-23.6177,-46.70158,AV MARGINAL DO RIO PINHEIROS (SYL,nan,2016-02-03 09:30:00,2,Queda moto/bicicleta,1,0,0,0,0,0,0,1,0,0,0,0,0,0,0,0,0,0,0
21385,D021600250,-23.65319,-46.72121,AV DAS NACOES UNIDAS,nan,2016-02-29 06:30:00,2,Queda moto/bicicleta,1,0,0,0,0,0,0,1,0,0,0,0,0,0,0,0,0,0,0
21386,D021600251,-23.4779,-46.72113,RUA COMEN FEIZ ZARZUR,nan,2016-02-29 04:47:00,2,Choque,2,0,1,0,0,0,0,0,0,0,0,0,0,0,0,0,0,0,0
21387,D021600252,-23.55269,-46.61103,AV ALCANTARA MACHADO,nan,2016-02-25 12:49:00,2,Queda moto/bicicleta,1,0,0,0,0,0,0,1,0,0,0,0,0,0,0,0,0,0,0
21388,D021600253,-23.53442,-46.54809,PONTE ARICANDUVA,nan,2016-02-18 05:30:00,2,Colisao,1,0,1,0,0,0,0,1,0,0,0,0,0,0,0,0,0,0,0
21389,D021600254,-23.709220000000002,-46.65724,RUA DAVIDE PEREZ,nan,2016-02-28 06:20:00,2,Colisao lateral,1,0,0,0,0,0,0,1,0,0,1,0,0,0,0,0,0,0,0
21390,D021600255,-23.60659,-46.67838,AV DOS BANDEIRANTES,nan,2016-02-18 11:10:00,2,Colisao,1,0,1,0,0,0,0,1,0,0,0,0,0,0,0,0,0,0,0
21391,D021600256,-23.475260000000002,-46.64998,RUA CONS MOREIRA DE BARROS,RUA FRANKLIN DO AMARAL,2016-02-12 11:00:00,4,Atropelamento,1,0,1,0,0,0,0,0,0,0,0,0,0,0,0,0,0,0,0
21392,D021600257,-23.60345,-46.74961,AV INTERCONTINENTAL,nan,2016-02-22 13:00:00,2,Colisao,1,0,1,0,0,0,0,1,0,0,0,0,0,0,0,0,0,0,0
21393,D021600258,-23.52159,-46.579229999999995,RUA DOS CONDOREIROS,nan,2016-02-08 15:35:00,4,Atropelamento,1,0,1,0,0,0,0,0,0,0,0,0,0,0,0,0,0,0,0
21394,D021600259,-23.67224,-46.64537,AV CUPECE,nan,2016-02-05 16:50:00,2,Queda moto/bicicleta,1,0,0,0,0,0,0,1,0,0,0,0,0,0,0,0,0,0,0
21395,D021600260,-23.54141,-46.672959999999996,RUA MONTE ALEGRE,nan,2016-02-26 18:43:00,4,Atropelamento,1,0,1,0,0,0,0,0,0,0,0,0,0,0,0,0,0,0,0
21396,D021600261,-23.580389999999998,-46.38925,RUA INACIO MONTEIRO,nan,2016-02-04 06:28:00,2,Colisao,1,0,1,0,0,0,0,1,0,0,0,0,0,0,0,0,0,0,0
21397,D021600262,-23.50756,-46.48832,AV S MIGUEL,nan,2016-02-05 18:00:00,4,Atropelamento,1,0,0,0,0,0,0,1,0,0,0,0,0,0,0,0,0,0,0
21398,D021600263,-23.55159,-46.757659999999994,AV CORIFEU DE AZEVEDO MARQUES,nan,2016-02-23 08:20:00,4,Atropelamento,1,0,1,0,0,0,0,0,0,0,0,0,0,0,0,0,0,0,0
21399,D021600264,-23.53877,-46.59471,RUA VISC DE PARNAIBA,nan,2016-02-14 01:14:00,2,Colisao frontal,1,0,1,0,0,0,0,1,0,0,0,0,0,0,0,0,0,0,0
21400,D021600265,-23.57713,-46.41705,RUA DO CAMPO (ANT. GARCA MORENA),nan,2016-02-26 06:19:00,2,Colisao,4,0,2,0,0,0,0,0,0,0,0,0,0,0,0,0,0,0,0
21401,D021600266,-23.61936,-46.60113,PRACA GAUCHA,nan,2016-02-22 21:10:00,2,Colisao,1,0,1,0,0,0,0,1,0,0,0,0,0,0,0,0,0,0,0
21402,D021600267,-23.63805,-46.636759999999995,AV AGUA FUNDA,nan,2016-02-04 15:54:00,2,Sem Informacao,1,0,1,0,0,0,0,1,0,0,0,0,0,0,0,0,0,0,0
21403,D021600268,-23.58622,-46.72361,AV PROF FRANCISCO MORATO,nan,2016-02-05 20:20:00,2,Colisao,1,0,1,0,0,0,0,1,0,0,1,0,0,0,0,0,0,0,0
21404,D021600269,-23.6008,-46.47975,RUA EDUARDO DE MARTINO,nan,2016-02-24 14:51:00,4,Atropelamento,1,0,0,0,0,0,0,1,0,0,0,0,0,0,0,0,0,0,0
21405,D021600270,-23.49383,-46.69205,AV MIGUEL CONEJO,nan,2016-02-21 20:07:00,2,Colisao frontal,1,0,1,0,0,0,1,0,0,0,0,0,0,0,0,0,0,0,0
21406,D021600271,-23.49622,-46.73592,AV DO ANASTACIO,nan,2016-02-18 13:45:00,2,Colisao,1,0,1,0,0,0,0,1,0,0,0,0,0,0,0,0,0,0,0
21407,D021600272,-23.47989,-46.71205,RUA PROF GIORGIO LEVI,nan,2016-02-04 09:30:00,2,Colisao traseira,1,0,1,0,0,0,0,0,0,0,1,0,0,0,0,0,0,0,0
21408,D021600273,-23.52197,-46.69631,RUA GUAICURUS,RUA ESPARTACO,2016-02-25 14:12:00,4,Atropelamento,1,0,0,0,0,0,0,0,0,0,0,0,0,1,0,0,0,0,0
21409,D021600274,-23.56383,-46.68404,RUA ARTUR DE AZEVEDO,RUA MATEUS GROU,2016-02-13 11:00:00,4,Atropelamento,1,0,1,0,0,0,0,0,0,0,0,0,0,0,0,0,0,0,0
21410,D021600275,-23.60932,-46.47672,RUA DR FELICE BUSCAGLIA,AV MATEO BEI,2016-02-02 14:30:00,4,Atropelamento,1,0,1,0,0,0,0,0,0,0,0,0,0,0,0,0,0,0,0
21411,D021600276,-23.57066,-46.69034,AV REBOUCAS,AV BRIG FARIA LIMA,2016-02-21 20:22:00,2,Colisao traseira,1,0,1,0,0,0,0,1,0,0,0,0,0,0,0,0,0,0,0
21412,D021600277,-23.48372,-46.642140000000005,AV DO GUACA,nan,2016-02-29 22:28:00,2,Colisao,1,0,5,0,0,0,0,0,0,0,0,0,0,0,0,0,0,0,0
21413,D021600278,-23.48982,-46.62421,RUA DR ZUQUIM,nan,2016-02-29 17:00:00,4,Atropelamento,1,0,0,0,0,0,0,1,0,0,0,0,0,0,0,0,0,0,0
21414,D021600279,-23.56445,-46.67852,AV REBOUCAS,nan,2016-02-15 22:30:00,2,Colisao,2,0,2,0,0,0,0,0,0,0,0,0,0,0,0,0,0,0,0
21415,D021600280,-23.51807,-46.45515,AV JACU-PESSEGO/NOVA TRABALHADORE,nan,2016-02-24 18:00:00,2,Colisao,1,0,1,0,0,0,0,1,0,0,0,0,0,0,0,0,0,0,0
21416,D021600281,-23.6531,-46.70131,RUA CARLOS GOMES (STO AMARO),RUA ENG TOMAS WHATELY,2016-02-06 13:20:00,2,Colisao,1,0,1,0,0,0,0,1,0,0,0,0,0,0,0,0,0,0,0
21417,D021600282,-23.57054,-46.41205,RUA BR JOAQUIM DO AMPARO,nan,2016-02-06 13:50:00,4,Atropelamento,1,0,1,0,0,0,0,0,0,0,0,0,0,0,0,0,0,0,0
21418,D021600283,-23.58708,-46.70799,RUA CAIXANAS,nan,2016-02-19 07:15:00,2,Colisao traseira,1,0,1,0,0,0,0,1,0,0,0,0,0,0,0,0,0,0,0
21419,D021600284,-23.50015,-46.697070000000004,RUA PIQUERI,nan,2016-02-22 00:50:00,2,Capotamento,3,0,1,0,0,0,0,0,0,0,1,0,0,0,0,0,0,0,0
21420,D021600285,-23.57141,-46.5246,AV MONS ANTONIO CASTRO,nan,2016-02-27 23:40:00,2,Colisao,1,0,1,0,0,0,0,1,0,0,0,0,0,0,0,0,0,0,0
21421,D021600286,-23.68208,-46.63706,AV CUPECE,nan,2016-02-05 08:50:00,2,Colisao,2,0,0,0,0,0,0,0,0,0,2,0,0,0,0,0,0,0,0
21422,D021600287,-23.63767,-46.67133,AV WASHINGTON LUIS,nan,2016-02-19 18:00:00,2,Colisao,1,0,1,0,0,0,0,1,0,0,0,0,0,0,0,0,0,0,0
21423,D021600288,-23.71395,-46.689859999999996,AV LOURENCO CABREIRA,nan,2016-02-07 02:30:00,2,Queda moto/bicicleta,1,0,0,0,0,0,0,1,0,0,0,0,0,0,0,0,0,0,0
21424,D021600289,-23.52308,-46.625040000000006,AV CRUZEIRO DO SUL,nan,2016-02-14 11:00:00,4,Atropelamento,1,0,1,0,0,0,0,0,0,0,0,0,0,0,0,0,0,0,0
21425,D021600290,-23.53604,-46.55519,AV CD DE FRONTIN,RUA RAQUETA PROVENSANO,2016-02-04 03:00:00,2,Choque,0,1,1,0,0,0,0,0,0,0,0,0,0,0,0,0,0,0,0
21426,D021600291,-23.5751,-46.65058,RUA TUTOIA,nan,2016-02-25 11:00:00,2,Colisao lateral,2,0,0,1,0,0,0,1,0,0,0,0,0,0,0,0,0,0,0
21427,D021600292,-23.57405,-46.696709999999996,RUA HUNGRIA,RUA OFELIA,2016-02-07 22:10:00,2,Colisao,1,0,1,0,0,0,0,1,0,0,0,0,0,0,0,0,0,0,0
21428,D021600293,-23.63162,-46.67346,RUA JOAQUIM NABUCO (STO AMARO),RUA SONIA RIBEIRO,2016-02-11 19:04:00,2,Sem Informacao,1,0,1,0,0,0,0,1,0,0,0,0,0,0,0,0,0,0,0
21429,D021600294,-23.60154,-46.53287,AV DO ORATORIO,nan,2016-02-22 02:31:00,2,Choque,2,0,1,0,0,0,0,0,0,0,0,0,0,0,0,0,0,0,0
21430,D021600295,-23.49607,-46.71313,AV PAULA FERREIRA,nan,2016-02-29 07:15:00,2,Colisao,1,0,1,0,0,0,0,1,0,0,0,0,0,0,0,0,0,0,0
21431,D021600296,-23.43691,-46.72078,AV RAIMUNDO PEREIRA DE MAGAL.,nan,2016-02-28 10:01:00,4,Atropelamento,1,0,1,0,0,0,0,0,0,0,0,0,0,0,0,0,0,0,0
21432,D021600297,-23.49386,-46.67853,AV DEP EMILIO CARLOS,nan,2016-02-21 23:51:00,2,Choque,3,0,1,0,0,0,0,0,0,0,0,0,0,0,0,0,0,0,0
21433,D021600298,-23.49517,-46.43656,AV MAL TITO,nan,2016-02-17 04:35:00,4,Atropelamento,1,0,0,0,0,0,0,0,0,0,0,0,0,0,0,0,0,0,1
21434,D021600299,-23.7185,-46.77753,ESTRADA DA BARONESA,nan,2016-02-02 15:45:00,2,Queda moto/bicicleta,1,0,0,0,0,0,0,1,0,0,0,0,0,0,0,0,0,0,0
21435,D021600300,-23.59081,-46.6861,AV PRES JUSCELINO KUBITSCHEK,nan,2016-02-21 07:20:00,2,Colisao,1,0,1,0,0,0,0,1,0,0,0,0,0,0,0,0,0,0,0
21436,D021600301,-23.48145,-46.61438,RUA ISMAEL NERI,nan,2016-02-11 11:40:00,2,Colisao traseira,1,0,0,1,0,0,0,1,0,0,0,0,0,0,0,0,0,0,0
21437,D021600302,-23.506439999999998,-46.64455,AV BRAZ LEME,nan,2016-02-07 20:30:00,2,Choque,1,0,1,0,0,0,0,0,0,0,0,0,0,1,0,0,0,0,0
21438,D021600303,-23.636570000000003,-46.66346,AV JORN ROBERTO MARINHO,nan,2016-02-13 22:45:00,4,Atropelamento,0,1,1,0,0,0,0,0,0,0,0,0,0,0,0,0,0,0,0
21439,D021600304,-23.64499,-46.72743,AV GUIDO CALOI,nan,2016-02-26 08:27:00,2,Colisao traseira,1,0,1,0,0,0,0,1,0,0,0,0,0,0,0,0,0,0,0
21440,D021600305,-23.46004,-46.67524,RUA S GONCALO DO ABAETE,nan,2016-02-22 06:44:00,2,Colisao,1,0,0,1,0,0,0,1,0,0,0,0,0,0,0,0,0,0,0
21441,D021600306,-23.65486,-46.76618,RUA FRANCISCO DA CRUZ MELLAO,nan,2016-02-07 21:30:00,2,Colisao,1,0,1,0,0,0,0,1,0,0,0,0,0,0,0,0,0,0,0
21442,D021600307,-23.48145,-46.5827,RUA SODRE E SILVA,nan,2016-02-09 21:30:00,2,Choque,2,0,0,0,0,0,0,1,0,0,0,0,0,0,0,0,0,0,0
21443,D021600308,-23.4684,-46.58059,AV LUIS STAMATIS,nan,2016-02-14 11:30:00,2,Queda moto/bicicleta,2,0,0,0,0,0,0,1,0,0,0,0,0,0,0,0,0,0,0
21444,D021600309,-23.58622,-46.72361,AV PROF FRANCISCO MORATO,nan,2016-02-15 16:05:00,2,Colisao,1,0,0,0,0,0,0,1,0,0,0,0,0,0,0,0,0,0,1
21445,D021600310,-23.52073,-46.746629999999996,AV DAS NACOES UNIDAS,nan,2016-02-24 12:30:00,2,Queda moto/bicicleta,1,0,0,0,0,0,0,1,0,0,0,0,0,0,0,0,0,0,0
21446,D021600311,-23.467979999999997,-46.59355,RUA MANUEL GAYA,nan,2016-02-24 16:19:00,2,Colisao,2,0,1,0,0,0,0,1,0,0,0,0,0,0,0,0,0,0,0
21447,D021600312,-23.64184,-46.7114,RUA BRAGANCA PAULISTA,AV JOAO CARLOS DA SILVA BORGES,2016-02-20 23:30:00,2,Colisao,1,0,0,0,0,0,0,1,0,0,1,0,0,0,0,0,0,0,0
21448,D021600313,-23.49845,-46.748459999999994,RUA SANDOVAL FERREIRA CABRAL,nan,2016-02-15 13:00:00,2,Choque,1,0,0,1,0,0,0,0,0,0,0,0,0,0,0,0,0,0,0
21449,D021600314,-23.56214,-46.6317,RUA BUENO DE ANDRADE,nan,2016-02-05 19:00:00,4,Atropelamento,1,0,1,0,0,0,0,0,0,0,0,0,0,0,0,0,0,0,0
21450,D021600315,-23.499270000000003,-46.663990000000005,AV ENG CAETANO ALVARES,nan,2016-02-07 08:15:00,4,Atropelamento,1,0,0,0,0,0,0,0,0,0,0,0,0,0,0,0,0,0,1
21451,D021600316,-23.618270000000003,-46.75858,ESTRADA DO CAMPO LIMPO,nan,2016-02-06 04:50:00,2,Colisao,1,0,1,0,0,0,0,1,0,0,0,0,0,0,0,0,0,0,0
21452,D021600317,-23.54006,-46.74223,AV ENG BILLINGS,nan,2016-02-24 07:40:00,2,Colisao,1,0,1,1,0,0,0,1,0,0,0,0,0,0,0,0,0,0,0
21453,D021600318,-23.579320000000003,-46.51765,AV INCONFIDENCIA MINEIRA,nan,2016-02-09 22:40:00,4,Atropelamento,1,0,0,0,0,0,0,0,0,0,1,0,0,0,0,0,0,0,0
21454,D021600319,-23.52078,-46.65772,AV DR ABRAAO RIBEIRO,nan,2016-02-26 17:10:00,2,Colisao,1,0,1,0,0,0,0,1,0,0,0,0,0,0,0,0,0,0,0
21455,D021600320,-23.49514,-46.486309999999996,RUA DR JOAQUIM AUGUSTO DE CAMARGO,nan,2016-02-18 13:05:00,4,Atropelamento,3,0,0,0,0,0,0,1,0,0,0,0,0,0,0,0,0,0,0
21456,D021600321,-23.73285,-46.68873,RUA JEQUIRITUBA,nan,2016-02-02 21:00:00,2,Colisao,1,0,1,0,0,0,0,1,0,0,0,0,0,0,0,0,0,0,0
21457,D021600322,-23.66916,-46.773270000000004,AV COMEN SANT'ANNA,nan,2016-02-20 19:58:00,4,Atropelamento,1,0,0,1,0,0,0,0,0,0,0,0,0,0,0,0,0,0,0
21458,D021600323,-23.60697,-46.684979999999996,RUA GUARAIUVA,nan,2016-02-05 23:23:00,2,Choque,2,0,1,0,0,0,0,0,0,0,0,0,0,0,0,0,0,0,0
21459,D021600324,-23.52856,-46.52802,RUA MARIA CARLOTA,nan,2016-02-20 07:35:00,2,Queda moto/bicicleta,1,0,0,0,0,0,0,1,0,0,0,0,0,0,0,0,0,0,0
21460,D021600325,-23.61514,-46.73969,RUA MAL HASTINFILO DE MOURA,RUA DESEM DALMO DO VALLE NOGUEIRA,2016-02-25 07:30:00,2,Colisao,1,0,1,0,0,0,1,0,0,0,0,0,0,0,0,0,0,0,0
21461,D021600326,-23.60281,-46.508720000000004,RUA PINOGUACU,nan,2016-02-22 08:00:00,4,Atropelamento,1,0,1,0,0,0,0,0,0,0,0,0,0,0,0,0,0,0,0
21462,D021600327,-23.62475,-46.60175,AV PDE ARLINDO VIEIRA,nan,2016-02-24 10:25:00,2,Colisao lateral,1,0,0,0,0,0,0,1,0,0,0,0,0,1,0,0,0,0,0
21463,D021600328,-23.67044,-46.64682,RUA DELFINO FACCHINA,AV CUPECE,2016-02-26 16:30:00,2,Colisao,1,0,0,0,0,0,0,2,0,0,0,0,0,0,0,0,0,0,0
21464,D021600329,-23.61415,-46.70211,AV DUQSA DE GOIAS,nan,2016-02-17 13:01:00,2,Colisao,1,0,0,0,0,0,0,1,0,0,1,0,0,0,0,0,0,0,0
21465,D021600330,-23.50328,-46.40667,AV GUARAPIRANGA,nan,2016-02-20 19:00:00,2,Colisao traseira,1,0,2,0,0,0,0,0,0,0,0,0,0,0,0,0,0,0,0
21466,D021600331,-23.71361,-46.6982,AV SEN TEOTONIO VILELA,nan,2016-02-10 04:15:00,2,Colisao,2,0,1,0,0,0,0,1,0,0,0,0,0,0,0,0,0,0,0
21467,D021600332,-23.63018,-46.75909,RUA CARDOSO MOREIRA,nan,2016-02-07 22:40:00,2,Colisao lateral,1,0,1,0,0,0,1,0,0,0,0,0,0,0,0,0,0,0,0
21468,D021600333,-23.65231,-46.711240000000004,RUA AMADOR BUENO,nan,2016-02-26 16:09:00,2,Colisao lateral,1,0,1,0,0,0,0,1,0,0,0,0,0,0,0,0,0,0,0
21469,D021600334,-23.59767,-46.599340000000005,RUA MANIFESTO,nan,2016-02-29 05:40:00,2,Colisao,1,0,1,0,0,0,0,1,0,0,0,0,0,0,0,0,0,0,0
21470,D021600335,-23.6139,-46.71463,RUA DR FLAVIO AMERICO MAURANO,nan,2016-02-18 18:30:00,2,Colisao lateral,1,0,1,0,0,0,0,1,0,0,0,0,0,0,0,0,0,0,0
21471,D021600336,-23.670370000000002,-46.73957,RUA JOSE BARROS MAGALDI,nan,2016-02-20 13:35:00,2,Colisao,1,0,1,0,0,0,0,1,0,0,1,0,0,0,0,0,0,0,0
21472,D021600337,-23.42043,-46.79377,VIA ANHANGUERA,nan,2016-02-05 07:27:00,2,Colisao traseira,2,0,0,0,0,0,0,1,0,0,0,0,0,1,0,0,0,0,0
21473,D021600338,-23.56446,-46.51372,AV RIO DAS PEDRAS,nan,2016-02-09 13:25:00,4,Atropelamento,1,0,1,0,0,0,0,0,0,0,0,0,0,0,0,0,0,0,0
21474,D021600339,-23.66874,-46.73342,AV GUARAPIRANGA,nan,2016-02-13 17:30:00,4,Atropelamento,1,0,1,0,0,0,0,0,0,0,0,0,0,0,0,0,0,0,0
21475,D021600340,-23.45693,-46.70816,RUA FLORES DE GOIAS,nan,2016-02-12 16:00:00,2,Queda moto/bicicleta,1,0,0,0,0,0,0,1,0,0,0,0,0,0,0,0,0,0,0
21476,D021600341,-23.78195,-46.681459999999994,RUA HENRIQUE MUZZIO,nan,2016-02-19 08:20:00,2,Colisao,1,0,0,0,0,0,0,0,0,0,2,0,0,0,0,0,0,0,0
21477,D021600342,-23.58338,-46.65331,AV VINTE E TRES DE MAIO,nan,2016-02-04 10:30:00,2,Colisao,1,0,1,0,0,0,0,1,0,0,0,0,0,0,0,0,0,0,0
21478,D021600343,-23.49589,-46.442440000000005,AV NORDESTINA,nan,2016-02-17 06:00:00,2,Choque,1,0,0,1,0,0,0,0,0,0,1,0,0,0,0,0,0,0,0
21479,D021600344,-23.679270000000002,-46.77636,RUA ABILIO CESAR,nan,2016-02-14 08:30:00,2,Colisao lateral,1,0,0,0,0,0,0,1,0,0,0,0,0,0,0,0,0,0,1
21480,D021600345,-23.59915,-46.51534,AV SAPOPEMBA,nan,2016-02-09 22:20:00,2,Colisao lateral,1,0,1,0,0,0,0,1,0,0,0,0,0,0,0,0,0,0,0
21481,D021600346,-23.5471,-46.642109999999995,RUA DA CONSOLACAO,nan,2016-02-07 19:30:00,2,Queda ocupante dentro,1,0,0,0,0,0,0,0,0,0,1,0,0,0,0,0,0,0,0
21482,D021600347,-23.669420000000002,-46.734320000000004,AV GUARAPIRANGA,nan,2016-02-06 12:30:00,4,Atropelamento,1,0,0,0,0,0,0,1,0,0,0,0,0,0,0,0,0,0,0
21483,D021600348,-23.60718,-46.43651,RUA ANECY ROCHA,nan,2016-02-21 13:40:00,2,Queda moto/bicicleta,1,0,0,0,0,0,0,1,0,0,0,0,0,0,0,0,0,0,0
21484,D021600349,-23.56868,-46.41368,AV SOUZA RAMOS,nan,2016-02-04 07:00:00,2,Colisao,1,0,1,0,0,0,1,0,0,0,0,0,0,0,0,0,0,0,0
21485,D021600350,-23.63167,-46.61764,AV DO CURSINO,nan,2016-02-26 07:33:00,2,Colisao,1,0,1,0,0,0,0,1,0,0,0,0,0,0,0,0,0,0,0
21486,D021600351,-23.647270000000002,-46.64008,RUA DOS COMERCIARIOS,nan,2016-02-15 22:30:00,2,Colisao,1,0,0,0,0,0,0,0,0,0,2,0,0,0,0,0,0,0,0
21487,D021600352,-23.718420000000002,-46.7628,ESTRADA DA CUMBICA,nan,2016-02-15 15:30:00,2,Sem Informacao,1,0,0,0,0,0,0,0,0,0,0,0,0,1,0,0,0,0,0
21488,D021600353,-23.48955,-46.626290000000004,RUA VOLUNTARIOS DA PATRIA,nan,2016-02-11 06:20:00,2,Colisao lateral,1,0,1,0,0,0,0,1,0,0,0,0,0,0,0,0,0,0,0
21489,D021600354,-23.505670000000002,-46.60309,RUA MARIA CANDIDA,RUA JOSE GONCALVES GOMIDE,2016-02-20 09:19:00,2,Colisao,3,0,2,0,0,0,0,0,0,0,0,0,0,0,0,0,0,0,0
21490,D021600355,-23.49255,-46.4444,AV NORDESTINA,nan,2016-02-19 07:18:00,2,Queda veiculo,1,0,1,0,0,0,0,0,0,0,0,0,0,0,0,0,0,0,0
21491,D021600356,-23.604329999999997,-46.53,AV MORAIS COSTA,nan,2016-02-02 13:36:00,2,Colisao,1,0,1,0,0,0,0,1,0,0,0,0,0,0,0,0,0,0,0
21492,D021600357,-23.58561,-46.40943,AV DOS METALURGICOS,nan,2016-02-09 16:20:00,2,Colisao,1,0,1,0,0,0,0,1,0,0,0,0,0,0,0,0,0,0,0
21493,D021600358,-23.70443,-46.68854,RUA DJALMA PESSOLATO,nan,2016-02-04 12:30:00,4,Atropelamento,1,0,1,0,0,0,0,0,0,0,0,0,0,0,0,0,0,0,0
21494,D021600359,-23.67022,-46.73948,RUA JOSE BARROS MAGALDI,nan,2016-02-20 12:30:00,4,Atropelamento,1,0,0,0,0,0,0,1,0,0,0,0,0,0,0,0,0,0,0
21495,D021600360,-23.628870000000003,-46.627179999999996,AV MIGUEL ESTEFANO,nan,2016-02-26 11:38:00,2,Sem Informacao,1,0,0,0,0,0,1,0,0,0,1,0,0,0,0,0,0,0,0
21496,D021600361,-23.54834,-46.655429999999996,AV NSRA DO SABARA,nan,2016-02-04 22:24:00,2,Colisao,1,0,1,0,0,0,0,1,0,0,0,0,0,0,0,0,0,0,0
21497,D021600362,-23.6092,-46.56067,RUA MARQ DE SANTO AMARO,nan,2016-02-15 07:20:00,4,Atropelamento,1,0,0,0,0,0,0,0,0,0,0,0,0,0,0,0,0,0,1
21498,D021600363,-23.5228,-46.686479999999996,RUA GUAICURUS,RUA SABAUNA,2016-02-06 06:45:00,2,Sem Informacao,1,0,0,0,0,0,0,1,0,0,0,0,0,0,0,0,0,0,1
21499,D021600364,-23.50827,-46.54923,RUA BARRA DO RIO DOCE,nan,2016-02-21 15:30:00,2,Colisao frontal,1,0,2,0,0,0,0,0,0,0,0,0,0,0,0,0,0,0,0
21500,D021600365,-23.56194,-46.69355,RUA PDE GARCIA VELHO,RUA CUNHA GAGO,2016-02-26 04:32:00,2,Sem Informacao,1,0,0,0,0,0,0,1,0,0,0,0,0,1,0,0,0,0,0
21501,D021600366,-23.531660000000002,-46.75562,AV PRES ALTINO,nan,2016-02-12 18:30:00,2,Colisao,1,0,0,1,0,0,0,1,0,0,0,0,0,0,0,0,0,0,0
21502,D021600367,-23.64584,-46.63816,RUA ONZE DE FEVEREIRO,nan,2016-02-16 06:25:00,2,Colisao,1,0,1,0,0,0,0,1,0,0,0,0,0,0,0,0,0,0,0
21503,D021600368,-23.551779999999997,-46.492490000000004,AV PROF EDGAR SANTOS,AV ENG JOAO BATISTA ARANHA,2016-02-06 23:38:00,2,Choque,0,1,0,0,0,0,0,1,0,0,0,0,0,0,0,0,0,0,0
21504,D021600369,-23.62215,-46.73823,RUA DR LUIZ MIGLIANO,AV DR GUILHERME DUMONT VILARES,2016-02-25 18:30:00,2,Colisao traseira,1,0,1,0,0,0,0,1,0,0,0,0,0,0,0,0,0,0,0
21505,D021600370,-23.77151,-46.67268,RUA MIGUEL SALCEDO,nan,2016-02-28 20:00:00,4,Atropelamento,1,0,1,0,0,0,0,0,0,0,0,0,0,0,0,0,0,0,0
21506,D021600371,-23.69049,-46.660340000000005,AV AUGUSTO DE CASTRO,RUA GAL EDSON FIGUEIREDO,2016-02-27 02:00:00,4,Atropelamento,1,0,0,1,0,0,0,0,0,0,0,0,0,0,0,0,0,0,0
21507,D021600372,-23.548000000000002,-46.60244,AV ALCANTARA MACHADO,RUA BRESSER,2016-02-21 19:30:00,2,Colisao lateral,1,0,0,0,0,0,0,1,0,0,0,0,0,0,0,0,0,0,1
21508,D021600373,-23.607960000000002,-46.64702,AV JOSE MARIA WHITAKER,nan,2016-02-20 14:09:00,2,Colisao,1,0,1,0,0,0,0,1,0,0,0,0,0,0,0,0,0,0,0
21509,D021600374,-23.49269,-46.62604,RUA VOLUNTARIOS DA PATRIA,nan,2016-02-18 05:55:00,4,Atropelamento,1,0,1,0,0,0,0,0,0,0,0,0,0,0,0,0,0,0,0
21510,D021600375,-23.75641,-46.713879999999996,AV SEN TEOTONIO VILELA,nan,2016-02-20 11:37:00,2,Choque,1,0,0,1,0,0,0,0,0,0,0,0,0,0,0,0,0,0,0
21511,D021600376,-23.6573,-46.70632,ALAMEDA SANTO AMARO,nan,2016-02-23 20:40:00,2,Colisao,1,0,1,0,0,0,0,1,0,0,0,0,0,0,0,0,0,0,0
21512,D021600377,-23.52683,-46.57498,AV CDSSA ELISABETH DE ROBIANO,nan,2016-02-10 14:30:00,2,Colisao,1,0,0,0,0,0,0,1,0,0,0,0,0,1,0,0,0,0,0
21513,D021600378,-23.53412,-46.600590000000004,RUA CATUMBI,nan,2016-02-13 00:05:00,2,Colisao traseira,1,0,1,0,0,0,0,0,0,0,0,0,0,1,0,0,0,0,0
21514,D021600379,-23.654139999999998,-46.77538,RUA SILVIO GALLICHO,nan,2016-02-05 23:00:00,4,Atropelamento,3,0,1,0,0,0,0,0,0,0,0,0,0,0,0,0,0,0,0
21515,D021600380,-23.48377,-46.63642,AV ENG CAETANO ALVARES,nan,2016-02-16 22:10:00,2,Colisao,1,0,1,0,0,0,0,1,0,0,0,0,0,0,0,0,0,0,0
21516,D021600381,-23.6177,-46.70158,AV MARGINAL DO RIO PINHEIROS (SYL,nan,2016-02-25 08:35:00,2,Colisao,1,0,0,0,0,0,0,1,0,0,0,0,0,0,0,0,0,0,1
21517,D021600382,-23.59507,-46.44043,AV RAGUEB CHOHFI,nan,2016-02-03 15:45:00,4,Atropelamento,1,0,0,0,0,0,0,1,0,0,0,0,0,0,0,0,0,0,0
21518,D021600383,-23.559260000000002,-46.58655,RUA FERNANDO FALCAO,nan,2016-02-25 07:45:00,2,Colisao lateral,1,0,1,0,0,0,0,1,0,0,0,0,0,0,0,0,0,0,0
21519,D021600384,-23.52197,-46.62948,AV SANTOS DUMONT,nan,2016-02-25 19:15:00,2,Colisao lateral,1,0,1,0,0,0,0,1,0,0,0,0,0,0,0,0,0,0,0
21520,D021600385,-23.67645,-46.775079999999996,RUA HENRIQUE SAM MINDLIN,RUA DAMASCO,2016-02-06 10:40:00,2,Colisao,1,0,1,0,0,0,0,1,0,0,0,0,0,0,0,0,0,0,0
21521,D021600386,-23.47172,-46.707570000000004,AV ELISIO TEIXEIRA LEITE,nan,2016-02-08 08:20:00,2,Colisao,1,0,1,0,0,0,0,1,0,0,0,0,0,0,0,0,0,0,0
21522,D021600387,-23.62276,-46.65268,AV DOS BANDEIRANTES,nan,2016-02-22 16:10:00,2,Choque,1,0,1,0,0,0,0,0,0,0,0,0,0,0,0,0,0,0,0
21523,D021600388,-23.56897,-46.71651,AV CORIFEU DE AZEVEDO MARQUES,nan,2016-02-28 22:00:00,2,Queda moto/bicicleta,1,0,0,0,0,0,0,1,0,0,0,0,0,0,0,0,0,0,0
21524,D021600389,-23.52308,-46.625040000000006,AV CRUZEIRO DO SUL,nan,2016-02-01 09:00:00,4,Atropelamento,1,0,1,0,0,0,0,0,0,0,0,0,0,0,0,0,0,0,0
21525,D021600390,-23.54985,-46.630359999999996,AV RANGEL PESTANA,nan,2016-02-03 13:15:00,2,Colisao lateral,2,0,0,0,0,0,0,1,0,0,1,0,0,0,0,0,0,0,0
21526,D021600391,-23.62,-46.45945,RUA MANUEL DA LUZ DRUMOND,nan,2016-02-06 17:22:00,2,Queda moto/bicicleta,1,0,0,0,0,0,0,1,0,0,0,0,0,0,0,0,0,0,0
21527,D021600392,-23.51878,-46.38997,RUA VITORIA DO ESPIRITO SANTO,nan,2016-02-07 02:00:00,2,Colisao traseira,0,1,1,0,0,0,0,1,0,0,0,0,0,0,0,0,0,0,0
21528,D021600393,-23.46124,-46.60275,AV CEL SEZEFREDO FAGUNDES,nan,2016-02-20 14:20:00,4,Atropelamento,1,0,0,0,0,0,0,1,0,0,0,0,0,0,0,0,0,0,0
21529,D021600394,-23.570439999999998,-46.64421,RUA TREZE DE MAIO,nan,2016-02-21 19:09:00,4,Atropelamento,1,0,1,0,0,0,0,0,0,0,0,0,0,0,0,0,0,0,0
21530,D021600395,-23.58156,-46.67275,RUA TABAPUA,nan,2016-02-15 17:43:00,4,Atropelamento,1,0,1,0,0,0,0,0,0,0,0,0,0,0,0,0,0,0,0
21531,D021600396,-23.531589999999998,-46.52127,AV ANTONIO ESTEVAO DE CARVALHO,nan,2016-02-25 05:40:00,2,Colisao,1,0,1,0,0,0,0,1,0,0,0,0,0,0,0,0,0,0,0
21532,D021600397,-23.58641,-46.69834,RUA ENG OSCAR AMERICANO,nan,2016-02-16 06:20:00,4,Atropelamento,1,0,1,0,0,0,0,0,0,0,0,0,0,0,0,0,0,0,0
21533,D021600398,-23.50105,-46.48786,AV BOTURUSSU,nan,2016-02-24 19:15:00,4,Atropelamento,1,0,1,0,0,0,0,0,0,0,0,0,0,0,0,0,0,0,0
21534,D021600399,-23.733929999999997,-46.703309999999995,RUA ALVARES CORREIA,nan,2016-02-08 17:30:00,2,Colisao lateral,1,0,1,0,0,0,0,1,0,0,0,0,0,0,0,0,0,0,0
21535,D021600400,-23.69325,-46.65696,ESTRADA DO ALVARENGA,RUA CORREGO AZUL,2016-02-23 23:26:00,2,Colisao,1,0,1,0,0,0,0,1,0,0,0,0,0,0,0,0,0,0,0
21536,D021600401,-23.643079999999998,-46.7472,AV CARLOS CALDEIRA FILHO,RUA ORFEU DA CONCEICAO,2016-02-20 14:03:00,2,Colisao traseira,1,0,1,0,0,0,0,1,0,0,0,0,0,0,0,0,0,0,0
21537,D021600402,-23.60493,-46.51035,AV PROF LUIZ IGNACIO ANHAIA MELLO,nan,2016-02-16 11:10:00,2,Colisao traseira,2,0,0,0,0,0,0,2,0,0,0,0,0,0,0,0,0,0,0
21538,D021600403,-23.61029,-46.617509999999996,AV DO CURSINO,nan,2016-02-10 06:09:00,2,Colisao,2,0,1,0,0,0,0,1,0,0,0,0,0,0,0,0,0,0,0
21539,D021600404,-23.553539999999998,-46.74661,AV GAL MAC ARTHUR,nan,2016-02-20 15:20:00,2,Queda moto/bicicleta,1,0,0,0,0,0,1,0,0,0,0,0,0,0,0,0,0,0,0
21540,D021600405,-23.684739999999998,-46.67624,RUA MARFIM,nan,2016-02-09 16:35:00,2,Colisao,1,0,1,0,0,0,0,1,0,0,0,0,0,0,0,0,0,0,0
21541,D021600406,-23.59229,-46.66788,RUA LOURENCO DE ALMEIDA,nan,2016-02-17 11:00:00,4,Atropelamento,1,0,1,0,0,0,0,0,0,0,0,0,0,0,0,0,0,0,0
21542,D021600407,-23.5089,-46.38624,AV ANASTACIO DE TRANCOSO,nan,2016-02-03 04:00:00,2,Choque,0,1,1,0,0,0,0,0,0,0,0,0,0,0,0,0,0,0,0
21543,D021600408,-23.480529999999998,-46.57313,RUA BENFICA,nan,2016-02-28 14:00:00,4,Atropelamento,1,0,1,0,0,0,0,0,0,0,0,0,0,0,0,0,0,0,0
21544,D021600409,-23.56009,-46.51651,AV RIO DAS PEDRAS,nan,2016-02-09 13:30:00,2,Queda ocupante dentro,1,0,0,0,0,0,0,0,0,0,1,0,0,0,0,0,0,0,0
21545,D021600410,-23.61505,-46.63884,AV JABAQUARA,nan,2016-02-05 15:00:00,2,Colisao traseira,1,0,1,0,0,0,0,1,0,0,0,0,0,0,0,0,0,0,0
21546,D021600411,-23.62681,-46.60152,AV PDE ARLINDO VIEIRA,nan,2016-02-20 06:35:00,2,Sem Informacao,1,0,0,0,0,0,0,1,0,0,0,1,0,0,0,0,0,0,0
21547,D021600412,-23.80009,-46.73535,VIA RODOANEL MARIO COVAS,nan,2016-02-27 10:30:00,2,Queda moto/bicicleta,1,0,0,0,0,0,0,1,0,0,0,0,0,0,0,0,0,0,0
21548,D021600413,-23.56573,-46.67545,AV BRASIL,RUA ATLANTICA,2016-02-13 06:10:00,2,Colisao,1,0,1,0,0,0,0,1,0,0,0,0,0,0,0,0,0,0,0
21549,D021600414,-23.5648,-46.70576,RUA HILARIO MAGRO JUNIOR,nan,2016-02-10 16:01:00,2,Choque,1,0,0,1,0,0,0,0,0,0,0,0,0,0,0,0,0,0,0
21550,D021600415,-23.61318,-46.71386,AV MORUMBI,nan,2016-02-25 01:00:00,2,Colisao,1,0,1,0,0,0,0,1,0,0,0,0,0,0,0,0,0,0,0
21551,D021600416,-23.65031,-46.67739,AV WASHINGTON LUIS,nan,2016-02-12 08:00:00,2,Colisao traseira,2,0,1,0,0,0,0,1,0,0,0,0,0,0,0,0,0,0,0
21552,D021600417,-23.539089999999998,-46.654270000000004,AV ANGELICA,nan,2016-02-11 15:34:00,4,Atropelamento,1,0,0,0,0,0,0,1,0,0,0,0,0,0,0,0,0,0,0
21553,D021600418,-23.49243,-46.449529999999996,AV S MIGUEL,nan,2016-02-07 04:00:00,2,Choque,1,0,1,0,0,0,0,0,0,0,0,0,0,0,0,0,0,0,0
21554,D021600419,-23.53665,-46.48469,AV CALIM EID (PTE RASA),RUA CATENDE,2016-02-24 06:39:00,2,Queda moto/bicicleta,2,0,0,0,0,0,0,1,0,0,0,0,0,0,0,0,0,0,0
21555,D021600420,-23.54006,-46.74223,AV ENG BILLINGS,nan,2016-02-24 16:51:00,2,Colisao,1,0,0,0,0,0,0,2,0,0,0,0,0,0,0,0,0,0,0
21556,D021600421,-23.537979999999997,-46.547470000000004,AV ARICANDUVA,nan,2016-02-25 16:37:00,2,Colisao,1,0,1,0,0,0,0,1,0,0,0,0,0,0,0,0,0,0,0
21557,D021600422,-23.519389999999998,-46.62327,AV PRES CASTELO BRANCO,nan,2016-02-23 15:35:00,2,Colisao lateral,1,0,1,0,0,0,0,1,0,0,0,0,0,0,0,0,0,0,0
21558,D021600423,-23.52528,-46.41206,RUA CON ANTONIO MANZI,nan,2016-02-19 01:00:00,2,Colisao,1,0,1,0,0,0,0,1,0,0,0,0,0,0,0,0,0,0,0
21559,D021600424,-23.53884,-46.56682,RUA MELO FREIRE,nan,2016-02-12 23:00:00,2,Colisao,1,0,2,0,0,0,0,1,0,0,0,0,0,0,0,0,0,0,0
21560,D021600425,-23.709,-46.69984,AV SEN TEOTONIO VILELA,nan,2016-02-25 13:07:00,2,Sem Informacao,1,0,3,0,0,0,0,0,0,0,0,0,0,0,0,0,0,0,0
21561,D021600426,-23.493779999999997,-46.426590000000004,AV MAL TITO,nan,2016-02-03 12:25:00,2,Queda ocupante fora,1,0,0,0,0,0,0,0,0,0,1,0,0,0,0,0,0,0,0
21562,D021600427,-23.52446,-46.6086,RUA JOAQUIM CARLOS,nan,2016-02-04 17:20:00,2,Colisao lateral,1,0,0,1,0,0,0,0,0,0,0,0,0,1,0,0,0,0,0
21563,D021600428,-23.700979999999998,-46.6457,ESTRADA DO ALVARENGA,nan,2016-02-13 11:30:00,4,Atropelamento,1,0,0,0,0,0,0,0,0,0,1,0,0,0,0,0,0,0,0
21564,D021600429,-23.57041,-46.5121,RUA REFINARIA MATARIPE,nan,2016-02-08 19:34:00,4,Atropelamento,1,0,1,0,0,0,0,0,0,0,0,0,0,0,0,0,0,0,0
21565,D021600430,-23.77007,-46.67969,ESTRADA DO BARRO BRANCO (GRAJAU),nan,2016-02-21 13:00:00,2,Queda moto/bicicleta,1,0,0,0,0,0,0,1,0,0,0,0,0,0,0,0,0,0,0
21566,D021600431,-23.444229999999997,-46.73536,ESTRADA TAIPAS,nan,2016-02-16 16:05:00,2,Colisao,2,0,1,0,0,0,0,1,0,0,0,0,0,0,0,0,0,0,0
21567,D021600432,-23.499779999999998,-46.60118,RUA CEL MARCILIO FRANCO,nan,2016-02-08 18:30:00,2,Queda moto/bicicleta,1,0,0,0,0,0,0,1,0,0,0,0,0,0,0,0,0,0,0
21568,D021600433,-23.552989999999998,-46.70776,RUA ARQ JAIME FONSECA RODRIGUES,PRACA PAN-AMERICANA,2016-02-03 17:21:00,2,Colisao,1,0,1,0,0,0,0,1,0,0,0,0,0,0,0,0,0,0,0
21569,D021600434,-23.62593,-46.66046,AV WASHINGTON LUIS,nan,2016-02-12 09:15:00,2,Sem Informacao,1,0,0,0,0,0,0,1,0,0,0,0,0,0,0,0,0,0,0
21570,D021600435,-23.55206,-46.41361,RUA SATURNINO PEREIRA,nan,2016-02-12 00:01:00,2,Colisao,1,0,1,0,0,0,0,1,0,0,0,0,0,0,0,0,0,0,0
21571,D021600436,-23.52998,-46.625890000000005,AV CRUZEIRO DO SUL,nan,2016-02-15 10:15:00,4,Atropelamento,0,1,1,0,0,0,0,1,0,0,0,0,0,0,0,0,0,0,0
21572,D021600437,-23.51291,-46.5161,RUA SALOMAO DANA,nan,2016-02-22 02:46:00,2,Queda moto/bicicleta,1,0,0,0,0,0,0,1,0,0,0,0,0,0,0,0,0,0,0
21573,D021600438,-23.53364,-46.399390000000004,RUA DR JOSE GRAVONSKY,ESTRADA DOM JOAO NERY,2016-02-12 06:45:00,2,Colisao,1,0,1,0,0,0,0,1,0,0,0,0,0,0,0,0,0,0,0
21574,D021600439,-23.58237,-46.65435,AV PEDRO ALVARES CABRAL,nan,2016-02-15 10:57:00,4,Atropelamento,2,0,0,0,0,0,0,1,0,0,0,0,0,0,0,0,0,0,0
21575,D021600440,-23.519470000000002,-46.643840000000004,AV PRES CASTELO BRANCO,nan,2016-02-06 03:40:00,4,Atropelamento,1,0,1,0,0,0,0,0,0,0,0,0,0,0,0,0,0,0,0
21576,D021600441,-23.68238,-46.65125,AV YERVANT KISSAJIKIAN,nan,2016-02-17 17:30:00,2,Queda moto/bicicleta,1,0,0,0,0,0,0,1,0,0,0,0,0,0,0,0,0,0,0
21577,D021600442,-23.68703,-46.780390000000004,RUA ABILIO CESAR,nan,2016-02-14 06:25:00,2,Colisao frontal,1,0,0,0,0,0,0,1,0,0,1,0,0,0,0,0,0,0,0
21578,D021600443,-23.60874,-46.743790000000004,AV DR GUILHERME DUMONT VILARES,nan,2016-02-18 09:00:00,2,Colisao lateral,1,0,2,0,0,0,0,0,0,0,0,0,0,0,0,0,0,0,0
21579,D021600444,-23.60551,-46.60395,AV PRES TANCREDO NEVES,nan,2016-02-11 18:45:00,2,Colisao,1,0,1,0,0,0,0,1,0,0,0,0,0,0,0,0,0,0,0
21580,D021600445,-23.58941,-46.4938,RUA PROF ANTONIO SAMPAIO DORIA,nan,2016-02-13 11:50:00,2,Choque,1,0,1,0,0,0,0,0,0,0,0,0,0,0,0,0,0,0,0
21581,D021600446,-23.71419,-46.6989,AV SEN TEOTONIO VILELA,nan,2016-02-11 23:00:00,2,Colisao lateral,1,0,1,0,0,0,0,1,0,0,0,0,0,0,0,0,0,0,0
21582,D021600447,-23.63731,-46.73747,AV CARLOS CALDEIRA FILHO,nan,2016-02-10 11:40:00,2,Colisao,2,0,1,0,0,0,0,1,0,0,0,0,0,0,0,0,0,0,0
21583,D021600448,-23.46639,-46.69766,RUA DOMINGOS VEGA,nan,2016-02-12 10:45:00,2,Queda moto/bicicleta,1,0,0,0,0,0,0,1,0,0,0,0,0,0,0,0,0,0,0
21584,D021600449,-23.45658,-46.59328,RUA MARIA AMALIA LOPES AZEVEDO,nan,2016-02-09 17:30:00,2,Colisao,1,0,1,0,0,0,1,0,0,0,0,0,0,0,0,0,0,0,0
21585,D021600450,-23.62208,-46.60988,RUA NSRA DA SAUDE,RUA ROMAO PUIGGARI,2016-02-11 17:00:00,2,Colisao,1,0,0,1,0,0,0,0,0,0,0,0,0,0,0,0,0,0,1
21586,D021600451,-23.66336,-46.68222,AV SARG GERALDO SANT'ANA,nan,2016-02-18 22:30:00,2,Colisao,1,0,1,0,0,0,0,1,0,0,0,0,0,0,0,0,0,0,0
21587,D021600452,-23.53584,-46.42585,AV JOSE PINHEIRO BORGES,RUA ERLI,2016-02-24 07:30:00,2,Colisao,1,0,1,0,0,0,1,0,0,0,0,0,0,0,0,0,0,0,0
21588,D021600453,-23.56198,-46.60025,RUA TABAJARAS,nan,2016-02-13 16:18:00,2,Colisao,1,0,4,0,0,0,0,0,0,0,0,0,0,0,0,0,0,0,0
21589,D021600454,-23.63743,-46.59278,VIA ANCHIETA,nan,2016-02-02 17:00:00,2,Sem Informacao,1,0,0,0,0,0,0,1,0,0,0,0,0,1,0,0,0,0,0
21590,D021600455,-23.565720000000002,-46.59834,RUA JUMANA,nan,2016-02-23 15:00:00,2,Colisao,1,0,0,1,0,0,0,1,0,0,0,0,0,0,0,0,0,0,0
21591,D021600456,-23.6412,-46.672290000000004,VIADUTO WASHINGTON LUIS,nan,2016-02-26 08:00:00,2,Colisao lateral,1,0,1,0,0,0,0,1,0,0,0,0,0,0,0,0,0,0,0
21592,D021600457,-23.47514,-46.665259999999996,AV IMIRIM,nan,2016-02-26 10:25:00,2,Colisao,1,0,1,0,0,0,0,1,0,0,0,0,0,0,0,0,0,0,0
21593,D021600458,-23.50977,-46.4988,AV S MIGUEL,nan,2016-02-05 11:00:00,2,Colisao,1,0,0,1,0,0,0,1,0,0,0,0,0,0,0,0,0,0,0
21594,D021600459,-23.67031,-46.716190000000005,RUA TAPUIAS,RUA AMARO LEITE,2016-02-16 23:09:00,2,Colisao,2,0,0,0,0,0,0,1,0,0,0,0,0,1,0,0,0,0,0
21595,D021600460,-23.50739,-46.54862,VIA AIRTON SENNA DA SILVA,nan,2016-02-26 07:50:00,2,Colisao,1,0,1,0,0,0,0,1,0,0,0,0,0,0,0,0,0,0,0
21596,D021600461,-23.604470000000003,-46.50843,AV SAPOPEMBA,nan,2016-02-10 06:30:00,2,Queda moto/bicicleta,1,0,0,0,0,0,0,1,0,0,0,0,0,0,0,0,0,0,0
21597,D021600462,-23.623079999999998,-46.61142,RUA VALDOMIRO LOBO DA COSTA,nan,2016-02-20 09:00:00,2,Colisao,1,0,2,0,0,0,0,0,0,0,0,0,0,0,0,0,0,0,0
21598,D021600463,-23.64251,-46.740759999999995,ESTRADA DE ITAPECERICA,nan,2016-02-27 16:00:00,2,Colisao,1,0,1,0,0,0,0,1,0,0,0,0,0,0,0,0,0,0,0
21599,D021600464,-23.526510000000002,-46.65193,RUA ANHANGUERA,nan,2016-02-05 06:30:00,2,Colisao,2,0,3,0,0,0,0,0,0,0,0,0,0,0,0,0,0,0,0
21600,D021600465,-23.74721,-46.6634,RUA ANDORINHAS BRASILEIRAS,nan,2016-02-25 17:30:00,2,Queda moto/bicicleta,1,0,0,0,0,0,0,1,0,0,0,0,0,0,0,0,0,0,0
21601,D021600466,-23.586920000000003,-46.71998,RUA DOM ARMANDO LOMBARDI,nan,2016-02-22 13:12:00,2,Colisao,1,0,1,0,0,0,0,0,0,0,0,0,0,0,1,0,0,0,0
21602,D021600467,-23.45355,-46.58283,TRAVESSA IGARAPE PRIMAVERA,nan,2016-02-09 20:45:00,2,Colisao,1,0,1,0,0,0,0,1,0,0,0,0,0,0,0,0,0,0,0
21603,D021600468,-23.53225,-46.4456,RUA PROF LEONIDIO ALLEGRETTI,RUA PAULO LOPES DE LEAO,2016-02-10 11:17:00,2,Colisao,1,0,1,0,0,0,0,1,0,0,0,0,0,0,0,0,0,0,0
21604,D021600469,-23.5481,-46.63981,AV NOVE DE JULHO,nan,2016-02-09 06:35:00,2,Queda ocupante fora,1,0,0,0,0,0,0,0,0,0,1,0,0,0,0,0,0,0,0
21605,D021600470,-23.660120000000003,-46.71261,AV DAS NACOES UNIDAS,nan,2016-02-28 06:00:00,2,Colisao lateral,1,0,1,0,0,0,0,1,0,0,0,0,0,0,0,0,0,0,0
21606,D021600471,,,SI SEM INFORMACAO DE ENDERECO,nan,2016-02-16 10:42:00,2,Colisao,1,0,1,0,0,0,0,2,0,0,0,0,0,0,0,0,0,0,0
21607,D021600472,-23.63786,-46.64095,AV ENG ARMANDO DE ARRUDA PEREIRA,RUA CONDURU,2016-02-17 19:55:00,2,Sem Informacao,1,0,0,0,0,0,1,0,0,0,1,0,0,0,0,0,0,0,0
21608,D021600473,-23.56479,-46.55822,AV VER ABEL FERREIRA,AV MONTEMAGNO,2016-02-21 02:40:00,2,Colisao,1,0,1,1,0,0,0,0,0,0,0,0,0,0,0,0,0,0,0
21609,D021600474,-23.50364,-46.522009999999995,RUA DOS PROFESSORES,nan,2016-02-20 09:40:00,2,Colisao,1,0,1,0,0,0,0,1,0,0,0,0,0,0,0,0,0,0,0
21610,D021600475,-23.61099,-46.71929,RUA DR FLAVIO AMERICO MAURANO,RUA SILVEIRA SAMPAIO,2016-02-22 06:30:00,2,Colisao,1,0,1,0,0,0,0,1,0,0,0,0,0,0,0,0,0,0,0
21611,D021600476,-23.4436,-46.6232,RUA S CLETO,nan,2016-02-26 18:30:00,2,Queda moto/bicicleta,1,0,0,0,0,0,0,1,0,0,0,0,0,0,0,0,0,0,0
21612,D021600477,-23.47944,-46.607820000000004,AV TUCURUVI,nan,2016-02-18 19:37:00,2,Colisao traseira,1,0,1,0,0,0,0,1,0,0,0,0,0,0,0,0,0,0,0
21613,D021600478,-23.633879999999998,-46.77426,RUA DR JOVIANO PACHECO DE AGUIRRE,nan,2016-02-06 03:00:00,2,Queda moto/bicicleta,0,1,0,0,0,0,0,1,0,0,0,0,0,0,0,0,0,0,0
21614,D021600479,-23.59037,-46.581920000000004,RUA IBITIRAMA,nan,2016-02-21 09:14:00,2,Colisao,1,0,1,0,0,0,0,1,0,0,0,0,0,0,0,0,0,0,0
21615,D021600480,-23.5027,-46.36651,RUA DESEM FAUSTO WHITAKER MACHADO ALVIM,AV KEMEL ADDAS (F. ITAIM-IT PA),2016-02-13 22:00:00,2,Colisao,1,0,1,0,0,0,1,0,0,0,0,0,0,0,0,0,0,0,0
21616,D021600481,-23.59703,-46.52977,AV VILA EMA,nan,2016-02-01 07:03:00,2,Colisao,1,0,1,0,0,0,1,0,0,0,0,0,0,0,0,0,0,0,0
21617,D021600482,-23.58604,-46.647290000000005,AV CONS RODRIGUES ALVES,nan,2016-02-04 15:45:00,4,Atropelamento,1,0,0,0,0,0,0,0,0,0,1,0,0,0,0,0,0,0,0
21618,D021600483,-23.480999999999998,-46.64642,AV DIREITOS HUMANOS,nan,2016-02-23 18:44:00,4,Atropelamento,1,0,1,0,0,0,0,0,0,0,0,0,0,0,0,0,0,0,0
21619,D021600484,-23.50094,-46.68636,AV INAJAR DE SOUZA,nan,2016-02-22 17:40:00,2,Queda ocupante dentro,1,0,0,0,0,0,0,0,0,0,1,0,0,0,0,0,0,0,0
21620,D021600485,-23.668870000000002,-46.75677,RUA MAEST MARZAGAO,nan,2016-02-18 23:00:00,2,Queda moto/bicicleta,1,0,0,0,0,0,0,1,0,0,0,0,0,0,0,0,0,0,0
21621,D021600486,-23.58427,-46.69996,AV S VALERIO,nan,2016-02-19 17:30:00,2,Colisao,1,0,1,0,0,0,0,1,0,0,0,0,0,0,0,0,0,0,0
21622,D021600487,-23.6665,-46.7208,AV GUARAPIRANGA,nan,2016-02-24 09:20:00,2,Colisao lateral,1,0,0,0,0,0,0,1,0,0,0,0,0,1,0,0,0,0,0
21623,D021600488,-23.4093,-46.7348,AV RAIMUNDO PEREIRA DE MAGAL.,nan,2016-02-05 17:00:00,2,Colisao,1,0,0,0,0,0,0,1,0,0,0,0,0,1,0,0,0,0,0
21624,D021600489,-23.63199,-46.60329,AV PDE ARLINDO VIEIRA,nan,2016-02-22 21:20:00,2,Colisao traseira,1,0,1,0,0,0,0,1,0,0,0,0,0,0,0,0,0,0,0
21625,D021600490,-23.55665,-46.664229999999996,AV REBOUCAS,nan,2016-02-03 01:00:00,4,Atropelamento,1,0,0,0,0,0,0,0,0,0,0,0,0,0,0,0,0,0,1
21626,D021600491,-23.63735,-46.64193,AV ENG GEORGE CORBISIER,nan,2016-02-12 13:00:00,4,Atropelamento,0,1,0,0,0,0,1,0,0,0,0,0,0,0,0,0,0,0,0
21627,D021600492,-23.53324,-46.672909999999995,RUA MINERVA,nan,2016-02-15 16:31:00,4,Atropelamento,1,0,1,0,0,0,0,0,0,0,0,0,0,0,0,0,0,0,0
21628,D021600493,-23.72154,-46.68869,AV PRES JOAO GOULART,nan,2016-02-18 06:15:00,2,Colisao traseira,1,0,1,0,0,0,0,1,0,0,0,0,0,0,0,0,0,0,0
21629,D021600494,-23.58844,-46.71584,RUA DOS TRES IRMAOS,RUA VALDEMAR BLAKAUSKAS,2016-02-02 18:31:00,2,Colisao lateral,1,0,1,0,0,0,0,1,0,0,0,0,0,0,0,0,0,0,0
21630,D021600495,-23.60434,-46.63688,VIADUTO JABAQUARA,nan,2016-02-28 09:00:00,4,Atropelamento,2,0,0,0,0,0,0,1,0,0,0,0,0,0,0,0,0,0,0
21631,D021600496,-23.62286,-46.50077,RUA ROSA DA CHINA,nan,2016-02-28 23:00:00,2,Colisao,2,0,1,0,0,0,0,1,0,0,0,0,0,0,0,0,0,0,0
21632,D021600497,-23.543020000000002,-46.445570000000004,RUA UBALDO DOS SANTOS,nan,2016-02-24 02:05:00,4,Atropelamento,1,0,0,0,0,0,0,0,0,0,0,0,0,0,0,0,0,0,1
21633,D021600498,-23.53446,-46.74864,AV ENG BILLINGS,nan,2016-02-05 08:50:00,2,Colisao lateral,1,0,1,0,0,0,0,1,0,0,0,0,0,0,0,0,0,0,0
21634,D021600499,-23.45366,-46.719190000000005,AV RAIMUNDO PEREIRA DE MAGAL.,nan,2016-02-06 11:40:00,2,Queda moto/bicicleta,1,0,0,0,0,0,0,1,0,0,0,0,0,0,0,0,0,0,0
21635,D021600500,-23.50279,-46.46738,AV MARIO ALVES,nan,2016-02-29 02:05:00,2,Queda moto/bicicleta,1,0,0,0,0,0,0,1,0,0,0,0,0,0,0,0,0,0,0
21636,D021600501,-23.45056,-46.68292,RUA ITATIBA DO SUL,nan,2016-02-06 19:35:00,4,Atropelamento,1,0,0,1,0,0,0,0,0,0,0,0,0,0,0,0,0,0,0
21637,D021600502,-23.68454,-46.65923,RUA ELISIO MENDES GAIA,nan,2016-02-07 07:30:00,2,Outros,0,1,0,0,0,0,0,1,0,0,0,0,0,0,0,0,0,0,0
21638,D021600503,-23.51688,-46.73555,AV ALEXANDRE COLARES,nan,2016-02-19 18:50:00,2,Colisao lateral,1,0,1,0,0,0,0,1,0,0,0,0,0,0,0,0,0,0,0
21639,D021600504,-23.65214,-46.67868,AV WASHINGTON LUIS,nan,2016-02-24 10:00:00,2,Colisao,1,0,0,1,0,0,0,1,0,0,0,0,0,0,0,0,0,0,0
21640,D021600505,-23.551389999999998,-46.478359999999995,AV ITAQUERA,RUA CESAR DIAZ,2016-02-24 08:40:00,2,Colisao,2,0,1,0,0,0,0,1,0,0,0,0,0,0,0,0,0,0,0
21641,D021600506,-23.53135,-46.64772,ALAMEDA RIBEIRO DA SILVA,nan,2016-02-23 14:30:00,2,Colisao,1,0,0,1,0,0,0,1,0,0,0,0,0,0,0,0,0,0,0
21642,D021600507,-23.49501,-46.41493,AV DOS IPES,nan,2016-02-06 18:30:00,2,Colisao,1,0,3,0,0,0,0,0,0,0,0,0,0,0,0,0,0,0,0
21643,D021600508,-23.51644,-46.72775,AV EMB MACEDO SOARES,nan,2016-02-12 02:40:00,2,Queda moto/bicicleta,1,0,0,0,0,0,0,1,0,0,0,0,0,0,0,0,0,0,0
21644,D021600509,-23.48819,-46.74473,RUA DOMINGOS DE BARROS LISBOA,nan,2016-02-18 17:41:00,2,Choque,1,0,0,0,0,0,0,1,0,0,0,0,0,0,0,0,0,0,0
21645,D021600510,-23.56317,-46.67403,RUA ATLANTICA,nan,2016-02-22 09:00:00,2,Colisao lateral,1,0,0,1,0,0,0,1,0,0,0,0,0,0,0,0,0,0,0
21646,D021600511,-23.558429999999998,-46.58445,RUA MAJ BASILIO,nan,2016-02-16 09:44:00,2,Colisao,1,0,1,0,0,0,0,1,0,0,0,0,0,0,0,0,0,0,0
21647,D021600512,-23.48858,-46.37562,RUA MOISES ALVES DOS SANTOS,nan,2016-02-01 22:20:00,4,Atropelamento,1,0,1,0,0,0,0,0,0,0,0,0,0,0,0,0,0,0,0
21648,D021600513,-23.46588,-46.57028,RUA GAL JERONIMO FURTADO,nan,2016-02-04 19:14:00,4,Atropelamento,1,0,0,0,0,0,0,1,0,0,0,0,0,0,0,0,0,0,0
21649,D021600514,-23.56791,-46.48271,RUA ESTEVAO DIAS VERGARA,nan,2016-02-09 01:00:00,2,Queda ocupante fora,2,1,1,0,0,0,0,0,0,0,0,0,0,0,0,0,0,0,0
21650,D021600515,-23.560270000000003,-46.584509999999995,RUA DOIS CORREGOS,nan,2016-02-19 16:54:00,2,Colisao frontal,1,0,1,0,0,0,0,1,0,0,0,0,0,0,0,0,0,0,0
21651,D021600516,-23.71204,-46.69613,RUA VALTER RIBEIRO MARRANY,nan,2016-02-11 11:45:00,4,Atropelamento,2,0,0,0,0,0,0,0,0,0,0,0,0,1,0,0,0,0,0
21652,D021600517,-23.683870000000002,-46.69192,AV INTERLAGOS,AV DAS NACOES UNIDAS,2016-02-13 23:15:00,2,Colisao,1,0,1,0,0,0,0,1,0,0,0,0,0,0,0,0,0,0,0
21653,D021600518,-23.5297,-46.51675,AV ANTONIO ESTEVAO DE CARVALHO,nan,2016-02-23 00:30:00,2,Colisao,1,0,1,0,0,0,0,0,0,0,1,0,0,0,0,0,0,0,0
21654,D021600519,-23.52261,-46.66018,AV MARQ DE SAO VICENTE,nan,2016-02-23 06:00:00,2,Queda ocupante dentro,1,0,0,0,0,0,0,0,0,0,1,0,0,0,0,0,0,0,0
21655,D021600520,-23.512629999999998,-46.46842,AV AUGUSTO ANTUNES,nan,2016-02-16 17:30:00,2,Colisao,1,0,2,0,0,0,0,0,0,0,0,0,0,0,0,0,0,0,0
21656,D021600521,-23.4993,-46.386140000000005,RUA MANUEL BUENO DA FONSECA,nan,2016-02-26 21:30:00,2,Queda moto/bicicleta,2,0,0,0,0,0,0,1,0,0,0,0,0,0,0,0,0,0,0
21657,D021600522,-23.53078,-46.7358,AV DR GASTAO VIDIGAL,nan,2016-02-03 15:24:00,4,Atropelamento,1,0,0,1,0,0,0,0,0,0,0,0,0,0,0,0,0,0,0
21658,D021600523,-23.52489,-46.445040000000006,AV PIRES DO RIO,RUA VINTE E TRES DE NOVEMBRO,2016-02-23 21:36:00,2,Colisao,1,0,1,0,0,0,0,1,0,0,0,0,0,0,0,0,0,0,0
21659,D021600524,-23.69282,-46.66457,ESTRADA DO ALVARENGA,nan,2016-02-11 10:30:00,2,Sem Informacao,1,0,0,0,0,0,0,1,0,0,0,0,0,1,0,0,0,0,0
21660,D021600525,-23.61063,-46.62791,AV PROF ABRAAO DE MORAIS,RUA IBIRAREMA,2016-02-01 14:00:00,2,Colisao traseira,1,0,0,0,0,0,0,1,0,0,0,0,0,0,0,0,0,0,1
21661,D021600526,-23.54831,-46.64216,VIADUTO NOVE DE JULHO,nan,2016-02-15 18:24:00,4,Atropelamento,1,0,1,0,0,0,0,0,0,0,0,0,0,0,0,0,0,0,0
21662,D021600527,-23.568579999999997,-46.64707,AV PAULISTA,RUA MARIA FIGUEIREDO,2016-02-08 23:55:00,2,Colisao,2,0,1,0,0,0,0,1,0,0,0,0,0,0,0,0,0,0,0
21663,D021600528,-23.49759,-46.45373,AV S MIGUEL,nan,2016-02-20 06:00:00,4,Atropelamento,1,0,0,0,0,0,0,0,0,0,1,0,0,0,0,0,0,0,0
21664,D021600529,-23.58614,-46.59805,AV JUNTAS PROVISORIAS,AV DO ESTADO,2016-02-29 19:15:00,2,Colisao,1,0,1,0,0,0,0,1,0,0,0,0,0,0,0,0,0,0,0
21665,D021600530,-23.53497,-46.49978,PRACA ARARUVA,nan,2016-02-29 07:22:00,4,Atropelamento,1,0,0,0,0,0,0,0,0,0,0,0,0,0,0,0,0,0,1
21666,D021600531,-23.66413,-46.65677,RUA MARGARIDA ZINGG,RUA VICENTE LEITE,2016-02-12 16:20:00,2,Colisao,1,0,1,0,0,0,0,1,0,0,0,0,0,0,0,0,0,0,0
21667,D021600532,-23.48242,-46.692209999999996,RUA PARAPUA,nan,2016-02-17 16:38:00,2,Sem Informacao,1,0,1,0,0,0,0,1,0,0,0,0,0,0,0,0,0,0,0
21668,D021600533,-23.54476,-46.62528,RUA DO GASOMETRO,nan,2016-02-13 07:51:00,2,Sem Informacao,1,0,1,0,0,0,0,1,0,0,0,0,0,0,0,0,0,0,0
21669,D021600534,-23.55026,-46.55584,RUA MINA,nan,2016-02-09 12:00:00,2,Queda moto/bicicleta,1,0,0,0,0,0,0,1,0,0,0,0,0,0,0,0,0,0,0
21670,D021600535,-23.55014,-46.60683,AV ALCANTARA MACHADO,nan,2016-02-28 16:40:00,2,Colisao traseira,1,0,0,0,0,0,0,1,0,0,0,0,0,0,0,0,0,0,1
21671,D021600536,-23.552210000000002,-46.61926,AV ALCANTARA MACHADO,nan,2016-02-02 16:40:00,2,Colisao lateral,1,0,0,0,0,0,0,1,0,0,0,1,0,0,0,0,0,0,0
21672,D021600537,-23.61939,-46.596140000000005,RUA ALENCAR ARARIPE,nan,2016-02-03 14:20:00,4,Atropelamento,1,0,1,0,0,0,0,0,0,0,0,0,0,0,0,0,0,0,0
21673,D021600538,-23.422079999999998,-46.78748,AV FORTUNATA TADIELLO NATUCCI,nan,2016-02-12 18:10:00,2,Sem Informacao,1,0,1,0,0,0,0,1,0,0,0,0,0,0,0,0,0,0,0
21674,D021600539,-23.521620000000002,-46.44299,AV PIRES DO RIO,RUA SUZANA DE MELO,2016-02-16 20:49:00,2,Colisao,1,0,0,0,0,0,0,1,0,0,1,0,0,0,0,0,0,0,0
21675,D021600540,-23.59705,-46.73242,RUA DR WILLIAN CARLOS CASSAB,nan,2016-02-25 12:49:00,4,Atropelamento,2,0,0,0,0,0,0,1,0,0,0,0,0,0,0,0,0,0,0
21676,D021600541,-23.54779,-46.540490000000005,RUA LUTECIA,nan,2016-02-10 17:36:00,4,Atropelamento,1,0,1,0,0,0,0,0,0,0,0,0,0,0,0,0,0,0,0
21677,D021600542,-23.489910000000002,-46.64223,RUA DIOGO CABRERA,RUA NOVA DOS PORTUGUESES,2016-02-20 19:30:00,2,Colisao frontal,1,0,1,0,0,0,0,1,0,0,0,0,0,0,0,0,0,0,0
21678,D021600543,-23.503079999999997,-46.5016,RUA CAREIRO,nan,2016-02-06 23:08:00,2,Colisao,1,0,1,0,0,0,0,1,0,0,0,0,0,0,0,0,0,0,0
21679,D021600544,-23.6507,-46.69454,RUA DARWIN,nan,2016-02-01 14:30:00,2,Colisao,1,0,1,0,0,0,0,1,0,0,0,0,0,0,0,0,0,0,0
21680,D021600545,-23.514789999999998,-46.72489,AV EMB MACEDO SOARES,nan,2016-02-05 10:15:00,2,Colisao,0,1,1,0,0,0,0,1,0,0,0,0,0,0,0,0,0,0,0
21681,D021600546,-23.50018,-46.6309,RUA ALFREDO PUJOL,nan,2016-02-26 06:40:00,2,Colisao frontal,1,0,0,0,0,0,1,0,0,0,1,0,0,0,0,0,0,0,0
21682,D021600547,-23.65361,-46.70794,RUA BR DO RIO BRANCO,AV PDE JOSE MARIA,2016-02-06 19:30:00,2,Colisao lateral,1,0,0,0,0,0,0,0,0,0,1,0,0,0,0,0,0,0,1
21683,D021600548,-23.60448,-46.696259999999995,AV DAS NACOES UNIDAS,nan,2016-02-04 08:11:00,2,Colisao,1,0,1,0,0,0,0,1,0,0,0,0,0,0,0,0,0,0,0
21684,D021600549,-23.52581,-46.4636,AV ERNESTO SOUZA CRUZ,nan,2016-02-09 00:10:00,4,Atropelamento,0,1,1,0,0,0,0,0,0,0,0,0,0,0,0,0,0,0,0
21685,D021600550,-23.535629999999998,-46.64931,RUA VITORINO CARMILO,nan,2016-02-05 17:00:00,2,Queda moto/bicicleta,1,0,0,0,0,0,0,1,0,0,0,0,0,0,0,0,0,0,0
21686,D021600551,-23.48661,-46.486090000000004,RUA DAS CRIANCAS,nan,2016-02-29 10:00:00,4,Atropelamento,1,0,1,0,0,0,0,0,0,0,0,0,0,0,0,0,0,0,0
21687,D021600552,-23.54895,-46.60434,AV ALCANTARA MACHADO,nan,2016-02-15 08:20:00,2,Colisao traseira,1,0,0,1,0,0,0,1,0,0,0,0,0,0,0,0,0,0,0
21688,D021600553,-23.54283,-46.51335,RUA BENTO QUIRINO,nan,2016-02-03 17:40:00,2,Queda ocupante dentro,1,0,0,0,0,0,0,0,0,0,1,0,0,0,0,0,0,0,0
21689,D021600554,-23.7619,-46.68512,RUA CEL JOAO CABANAS,nan,2016-02-12 16:25:00,2,Choque,0,1,0,0,0,0,1,0,0,0,0,0,0,0,0,0,0,0,0
21690,D021600555,-23.50703,-46.6247,AV GAL ATALIBA LEONEL,AV CRUZEIRO DO SUL,2016-02-20 08:43:00,4,Atropelamento,1,0,1,0,0,0,0,0,0,0,0,0,0,0,0,0,0,0,0
21691,D021600556,-23.61564,-46.613170000000004,RUA PRISCILIANA DUARTE,RUA JUVENAL GALENO,2016-02-15 00:35:00,2,Colisao,2,0,2,0,0,0,0,0,0,0,0,0,0,0,0,0,0,0,0
21692,D021600557,-23.66125,-46.768229999999996,AV ELLIS MAAS,nan,2016-02-11 14:51:00,4,Atropelamento,1,0,1,0,0,0,0,0,0,0,0,0,0,0,0,0,0,0,0
21693,D021600558,-23.60191,-46.50525,RUA PDE BALTAZAR DUARTE,nan,2016-02-20 01:05:00,2,Colisao,1,0,0,0,0,0,1,0,0,0,1,0,0,0,0,0,0,0,0
21694,D021600559,-23.55615,-46.44576,RUA S TEODORO,nan,2016-02-26 10:00:00,4,Atropelamento,1,0,0,0,0,0,0,0,0,0,1,0,0,0,0,0,0,0,0
21695,D021600560,-23.65161,-46.702020000000005,RUA COMEN ELIAS ZARZUR,RUA ISABEL SCHMIDT,2016-02-23 19:00:00,2,Colisao,2,0,1,0,0,0,0,1,0,0,0,0,0,0,0,0,0,0,0
21696,D021600561,-23.49449,-46.443220000000004,AV NORDESTINA,nan,2016-02-06 10:20:00,4,Atropelamento,1,0,0,0,0,0,0,0,0,0,0,0,0,0,0,0,0,0,1
21697,D021600562,-23.59338,-46.41943,ESTRADA IGUATEMI,nan,2016-02-15 07:30:00,2,Colisao,1,0,1,0,0,0,0,1,0,0,0,0,0,0,0,0,0,0,0
21698,D021600563,-23.54104,-46.593779999999995,VIADUTO GUADALAJARA,nan,2016-02-04 16:10:00,2,Colisao traseira,1,0,0,1,0,0,0,1,0,0,0,0,0,0,0,0,0,0,0
21699,D021600564,-23.524929999999998,-46.70165,RUA CLELIA,nan,2016-02-25 07:35:00,4,Atropelamento,1,0,0,0,0,0,0,0,0,0,1,0,0,0,0,0,0,0,0
21700,D021600565,-23.61686,-46.7114,AV MORUMBI,nan,2016-02-25 23:00:00,2,Sem Informacao,1,0,1,0,0,0,0,1,0,0,0,0,0,0,0,0,0,0,0
21701,D021600566,-23.68463,-46.64908,AV YERVANT KISSAJIKIAN,nan,2016-02-04 08:00:00,4,Atropelamento,1,0,0,0,0,0,0,1,0,0,0,0,0,0,0,0,0,0,0
21702,D021600567,-23.61952,-46.69535,AV MORUMBI,nan,2016-02-06 21:02:00,2,Queda moto/bicicleta,1,0,0,0,0,0,0,1,0,0,0,0,0,0,0,0,0,0,0
21703,D021600568,-23.63715,-46.59467,AV MARGINAL ESQUERDA ANCHIETA,nan,2016-02-12 15:53:00,2,Colisao lateral,1,0,1,0,0,0,0,1,0,0,0,0,0,0,0,0,0,0,0
21704,D021600569,-23.52019,-46.53055,RUA JULIO RINALDI,nan,2016-02-20 14:30:00,2,Colisao,1,0,1,0,0,0,1,0,0,0,0,0,0,0,0,0,0,0,0
21705,D021600570,-23.595029999999998,-46.69792,RUA INOCENCIO NOGUEIRA,nan,2016-02-23 09:30:00,2,Colisao,1,0,1,0,0,0,0,1,0,0,0,0,0,0,0,0,0,0,0
21706,D021600571,-23.665589999999998,-46.65705,AV CUPECE,nan,2016-02-14 22:40:00,2,Colisao,1,0,0,0,0,0,0,1,0,0,0,0,0,0,0,0,0,0,1
21707,D021600572,-23.64485,-46.72554,PONTE JOAO DIAS,nan,2016-02-01 16:00:00,2,Queda moto/bicicleta,1,0,0,0,0,0,0,1,0,0,0,0,0,0,0,0,0,0,0
21708,D021600573,-23.5249,-46.6827,RUA CARLOS VICARI,nan,2016-02-23 08:30:00,4,Atropelamento,1,0,1,0,0,0,0,0,0,0,0,0,0,0,0,0,0,0,0
21709,D021600574,-23.53782,-46.56456,RUA MELO FREIRE,RUA APUCARANA,2016-02-28 19:00:00,2,Queda ocupante dentro,1,0,0,0,0,0,0,0,0,0,1,0,0,0,0,0,0,0,0
21710,D021600575,-23.59286,-46.672470000000004,AV SANTO AMARO,nan,2016-02-13 00:30:00,2,Colisao,1,0,1,0,0,0,1,0,0,0,0,0,0,0,0,0,0,0,0
21711,D021600576,-23.466379999999997,-46.58514,RUA BENJAMIN PEREIRA,nan,2016-02-15 08:24:00,2,Sem Informacao,1,0,1,0,0,0,0,1,0,0,0,0,0,0,0,0,0,0,0
21712,D021600577,-23.61114,-46.529920000000004,RUA STA ZITA,nan,2016-02-08 13:55:00,4,Atropelamento,0,1,0,0,0,0,0,0,0,0,0,0,0,1,0,0,0,0,0
21713,D021600578,-23.5094,-46.593059999999994,ESTRADA DO IMPERADOR,nan,2016-02-10 02:00:00,2,Outros,1,0,0,0,0,0,0,0,0,0,1,0,0,0,0,0,0,0,0
21714,D021600579,-23.677970000000002,-46.68453,AV INTERLAGOS,AV NSRA DO SABARA,2016-02-28 21:00:00,4,Atropelamento,1,0,1,0,0,0,0,0,0,0,0,0,0,0,0,0,0,0,0
21715,D021600580,-23.54339,-46.60051,RUA CAJURU,RUA LOPES COUTINHO,2016-02-18 19:00:00,2,Colisao lateral,1,0,2,0,0,0,0,0,0,0,0,0,0,0,0,0,0,0,0
21716,D021600581,-23.564220000000002,-46.416270000000004,AV IGUATEMI,nan,2016-02-22 02:08:00,4,Atropelamento,1,0,1,0,0,0,0,0,0,0,0,0,0,0,0,0,0,0,0
21717,D021600582,-23.52822,-46.46631,AV DAS ALAMANDAS,nan,2016-02-23 14:18:00,4,Atropelamento,1,0,0,1,0,0,0,0,0,0,0,0,0,0,0,0,0,0,0
21718,D021600583,-23.54739,-46.7365,AV JAGUARE,nan,2016-02-08 16:00:00,2,Colisao traseira,1,0,1,0,0,0,0,0,0,0,0,0,0,1,0,0,0,0,0
21719,D021600584,-23.66778,-46.73141,AV GUARAPIRANGA,nan,2016-02-04 14:30:00,4,Atropelamento,0,1,0,0,0,0,0,1,0,0,0,0,0,0,0,0,0,0,0
21720,D021600585,-23.59855,-46.787620000000004,RUA OSCAR PEDROSO HORTA,nan,2016-02-28 14:37:00,2,Colisao,1,0,2,0,0,0,0,0,0,0,0,0,0,0,0,0,0,0,0
21721,D021600586,-23.48856,-46.6078,AV GAL ATALIBA LEONEL,nan,2016-02-27 15:35:00,2,Colisao frontal,1,0,1,0,0,0,0,1,0,0,0,0,0,0,0,0,0,0,0
21722,D021600587,-23.52133,-46.51654,AV AMADOR BUENO DA VEIGA,RUA DONA AURORA GUIMARAES,2016-02-22 07:00:00,2,Colisao,1,0,1,0,0,0,0,1,0,0,0,0,0,0,0,0,0,0,0
21723,D021600588,-23.639860000000002,-46.67282,AV WASHINGTON LUIS,nan,2016-02-26 22:30:00,2,Colisao,1,0,1,0,0,0,0,1,0,0,0,0,0,0,0,0,0,0,0
21724,D021600589,-23.6139,-46.71463,RUA DR FLAVIO AMERICO MAURANO,nan,2016-02-19 08:50:00,2,Sem Informacao,1,0,1,0,0,0,0,1,0,0,0,0,0,0,0,0,0,0,0
21725,D021600590,-23.64281,-46.761990000000004,RUA PROF OSCAR CAMPIGLIA,nan,2016-02-23 06:00:00,2,Colisao frontal,2,0,1,0,0,0,0,1,0,0,0,0,0,0,0,0,0,0,0
21726,D021600591,-23.66892,-46.769290000000005,RUA COMEN ANTUNES DOS SANTOS,nan,2016-02-16 18:45:00,2,Colisao,1,0,1,0,0,0,0,1,0,0,0,0,0,0,0,0,0,0,0
21727,D021600592,-23.49576,-46.63705,ALAMEDA AFONSO SCHMIDT,nan,2016-02-06 20:12:00,2,Colisao,1,0,1,0,0,0,0,1,0,0,0,0,0,0,0,0,0,0,0
21728,D021600593,-23.55196,-46.659209999999995,RUA DA CONSOLACAO,nan,2016-02-12 21:05:00,2,Colisao,1,0,0,0,0,0,0,1,0,0,1,0,0,0,0,0,0,0,0
21729,D021600594,-23.53036,-46.49501,RUA ITINGUCU,RUA BALTAZAR BRUM,2016-02-20 12:16:00,2,Colisao,2,0,1,0,0,0,0,1,0,0,0,0,0,0,0,0,0,0,0
21730,D021600595,-23.5253,-46.41202,RUA CON ANTONIO MANZI,nan,2016-02-09 17:30:00,2,Queda moto/bicicleta,1,0,0,0,0,0,0,1,0,0,0,0,0,0,0,0,0,0,0
21731,D021600596,-23.651310000000002,-46.77296,RUA LIMBANI,nan,2016-02-07 02:00:00,2,Colisao,1,0,0,0,0,0,0,2,0,0,0,0,0,0,0,0,0,0,0
21732,D021600597,-23.65931,-46.64307,RUA DOS GUASSATUNGAS,nan,2016-02-15 08:45:00,2,Colisao,1,0,0,0,0,0,1,0,0,0,1,0,0,0,0,0,0,0,0
21733,D021600598,-23.47126,-46.57414,RUA FRANCISCO ALVES BEZERRA,nan,2016-02-07 23:00:00,4,Atropelamento,1,0,1,0,0,0,0,0,0,0,0,0,0,0,0,0,0,0,0
21734,D021600599,-23.50255,-46.74729,AV ELISIO CORDEIRO DE SIQUEIRA,nan,2016-02-07 01:05:00,2,Colisao,1,0,1,0,0,0,0,1,0,0,0,0,0,0,0,0,0,0,0
21735,D021600600,-23.665210000000002,-46.67511,RUA HONORINDA JOSEFA DA SILVA,RUA SEBASTOPOL,2016-02-12 09:30:00,2,Queda moto/bicicleta,1,0,0,0,0,0,0,1,0,0,0,0,0,0,0,0,0,0,0
21736,D021600601,-23.59021,-46.6795,AV PRES JUSCELINO KUBITSCHEK,nan,2016-02-29 06:37:00,2,Queda moto/bicicleta,1,0,0,0,0,0,0,1,0,0,0,0,0,0,0,0,0,0,0
21737,D021600602,-23.61099,-46.48701,AV SAPOPEMBA,nan,2016-02-05 07:36:00,2,Colisao,1,0,2,0,0,0,0,0,0,0,0,0,0,0,0,0,0,0,0
21738,D021600603,-23.53706,-46.601459999999996,RUA MARCOS ARRUDA,nan,2016-02-19 18:58:00,2,Colisao traseira,1,0,0,0,0,0,0,1,0,0,1,0,0,0,0,0,0,0,0
21739,D021600604,-23.63549,-46.66891,AV WASHINGTON LUIS,nan,2016-02-02 11:00:00,2,Colisao,2,0,0,1,0,0,0,1,0,0,0,0,0,0,0,0,0,0,0
21740,D021600605,-23.478579999999997,-46.63289,AV ZUMKELLER,nan,2016-02-13 19:30:00,2,Colisao lateral,1,0,1,0,0,0,0,1,0,0,0,0,0,0,0,0,0,0,0
21741,D021600606,-23.64048,-46.64391,AV ENG GEORGE CORBISIER,nan,2016-02-15 13:00:00,4,Atropelamento,2,0,1,0,0,0,0,0,0,0,0,0,0,0,0,0,0,0,0
21742,D021600607,-23.53367,-46.642520000000005,ALAMEDA BR DE PIRACICABA,RUA HELVETIA,2016-02-25 08:06:00,4,Atropelamento,1,0,0,0,0,0,0,0,0,0,0,0,0,0,1,0,0,0,0
21743,D021600608,-23.56074,-46.4719,RUA ONOFRE JORGE VELHO,nan,2016-02-27 16:00:00,4,Atropelamento,1,0,1,0,0,0,0,0,0,0,0,0,0,0,0,0,0,0,0
21744,D021600609,-23.5098,-46.46112,AV LARANJA DA CHINA,nan,2016-02-05 22:00:00,2,Queda moto/bicicleta,1,0,0,0,0,0,0,1,0,0,0,0,0,0,0,0,0,0,0
21745,D021600610,-23.715220000000002,-46.688520000000004,RUA FRUTUOSO BARBOSA,nan,2016-02-29 13:14:00,2,Colisao,1,0,2,0,0,0,0,0,0,0,0,0,0,0,0,0,0,0,0
21746,D021600611,-23.71819,-46.69919,AV SEN TEOTONIO VILELA,nan,2016-02-25 08:30:00,2,Colisao,1,0,2,0,0,0,0,1,0,0,0,0,0,0,0,0,0,0,0
21747,D021600612,-23.553810000000002,-46.627309999999994,AV PREF PASSOS,nan,2016-02-10 22:46:00,4,Atropelamento,1,0,0,0,0,0,0,0,0,0,0,0,0,0,0,0,0,0,1
21748,D021600613,-23.441010000000002,-46.58814,RUA USHIKICHI KAMIYA,nan,2016-02-20 22:30:00,2,Colisao lateral,1,0,1,0,0,0,0,0,0,0,1,0,0,0,0,0,0,0,0
21749,D021600614,-23.6107,-46.58549,AV ALM DELAMARE,nan,2016-02-25 08:05:00,2,Colisao,1,0,0,1,0,0,0,1,0,0,0,0,0,0,0,0,0,0,0
21750,D021600615,-23.590999999999998,-46.69419,AV ALCIDES SANGIRARDI,nan,2016-02-19 17:20:00,2,Queda moto/bicicleta,1,0,0,0,0,0,0,1,0,0,0,0,0,0,0,0,0,0,0
21751,D021600616,-23.63995,-46.60754,AV PDE ARLINDO VIEIRA,nan,2016-02-13 23:34:00,2,Colisao frontal,1,0,1,0,0,0,0,1,0,0,0,0,0,0,0,0,0,0,0
21752,D021600617,-23.7003,-46.766940000000005,AV PROF MARIO MAZAGAO,nan,2016-02-14 16:00:00,2,Colisao,1,0,1,0,0,0,0,1,0,0,0,0,0,0,0,0,0,0,0
21753,D021600618,-23.59645,-46.63633,RUA DOMINGOS DE MORAIS,nan,2016-02-14 13:00:00,2,Choque,1,0,0,1,0,0,0,1,0,0,0,0,0,0,0,0,0,0,0
21754,D021600619,-23.541420000000002,-46.578,RUA MELO FREIRE,nan,2016-02-19 17:20:00,2,Colisao,1,0,1,0,0,0,0,1,0,0,0,0,0,0,0,0,0,0,0
21755,D021600620,-23.62935,-46.66768,AV WASHINGTON LUIS,RUA SEBASTIAO PAES,2016-02-03 17:15:00,2,Colisao,15,0,0,0,0,0,0,0,0,0,2,0,0,0,0,0,0,0,0
21756,D021600621,-23.5268,-46.667590000000004,AV AURO SOARES DE M.ANDRADE,nan,2016-02-10 18:15:00,2,Colisao,1,0,1,0,0,0,0,0,0,0,1,0,0,0,0,0,0,0,0
21757,D021600622,-23.51321,-46.43288,RUA CARDON,nan,2016-02-08 07:15:00,2,Colisao,1,0,1,0,0,0,0,1,0,0,0,0,0,0,0,0,0,0,0
21758,D021600623,-23.56519,-46.6119,AV DOM PEDRO I,nan,2016-02-16 15:27:00,2,Colisao,1,0,0,0,0,0,0,1,0,0,0,0,0,0,0,0,0,0,1
21759,D021600624,-23.7196,-46.706109999999995,RUA FREDERICO RENE DE JAEGHER,nan,2016-02-09 10:20:00,2,Queda moto/bicicleta,1,0,0,0,0,0,0,1,0,0,0,0,0,0,0,0,0,0,0
21760,D021600625,-23.70288,-46.64755,RUA DOS ROBALOS,nan,2016-02-01 17:30:00,2,Colisao,1,0,1,0,0,0,0,1,0,0,0,0,0,0,0,0,0,0,0
21761,D021600626,-23.471429999999998,-46.70855,AV ELISIO TEIXEIRA LEITE,nan,2016-02-19 16:00:00,2,Queda moto/bicicleta,1,0,0,0,0,0,0,1,0,0,0,0,0,0,0,0,0,0,0
21762,D021600627,-23.6226,-46.76279,ESTRADA DO CAMPO LIMPO,nan,2016-02-15 21:30:00,2,Queda ocupante dentro,1,0,0,0,0,0,0,0,0,0,1,0,0,0,0,0,0,0,0
21763,D021600628,-23.62029,-46.73173,RUA DR LAERTE SETUBAL,nan,2016-02-09 23:00:00,2,Colisao,1,0,1,0,0,0,0,1,0,0,0,0,0,0,0,0,0,0,0
21764,D021600629,-23.56408,-46.677929999999996,RUA HENRIQUE SCHAUMANN,nan,2016-02-08 16:10:00,4,Atropelamento,2,0,0,1,0,0,0,0,0,0,0,0,0,0,0,0,0,0,0
21765,D021600630,-23.55658,-46.63989,AV BRIG LUIS ANTONIO,nan,2016-02-18 16:10:00,2,Queda ocupante fora,1,0,0,0,0,0,0,0,0,0,1,0,0,0,0,0,0,0,0
21766,D021600631,-23.55495,-46.59168,RUA TOBIAS BARRETO,nan,2016-02-25 15:00:00,2,Colisao traseira,1,0,1,0,0,0,0,1,0,0,0,0,0,0,0,0,0,0,0
21767,D021600632,-23.520889999999998,-46.637209999999996,AV PRES CASTELO BRANCO,nan,2016-02-17 19:30:00,2,Colisao,0,1,1,0,0,0,0,1,0,0,0,0,0,1,0,0,0,0,0
21768,D021600633,-23.70526,-46.64326,ESTRADA DO ALVARENGA,nan,2016-02-10 14:25:00,2,Queda ocupante fora,1,0,0,0,0,0,0,0,0,0,1,0,0,0,0,0,0,0,0
21769,D021600634,-23.49941,-46.57242,AV DAS CEREJEIRAS,nan,2016-02-08 15:30:00,2,Queda ocupante dentro,1,0,0,0,0,0,0,0,0,1,0,0,0,0,0,0,0,0,0
21770,D021600635,-23.4201,-46.7947,VIA ANHANGUERA,nan,2016-02-07 20:45:00,4,Atropelamento,1,0,1,0,0,0,0,0,0,0,0,0,0,0,0,0,0,0,0
21771,D021600636,-23.57284,-46.49864,AV DOS LATINOS,nan,2016-02-23 07:43:00,2,Colisao,2,0,1,0,0,0,0,1,0,0,0,0,0,0,0,0,0,0,0
21772,D021600637,-23.632929999999998,-46.728590000000004,RUA ANTONIO DA COSTA BARBOSA,nan,2016-02-26 08:00:00,2,Colisao frontal,1,0,1,0,0,0,0,1,0,0,0,0,0,0,0,0,0,0,0
21773,D021600638,-23.53666,-46.68018,RUA VANDERLEI,nan,2016-02-03 15:40:00,2,Queda moto/bicicleta,1,0,0,0,0,0,0,1,0,0,0,0,0,0,0,0,0,0,0
21774,D021600639,-23.5405,-46.70019,RUA CERRO CORA,RUA ANTONIO BORBA,2016-02-20 10:16:00,2,Colisao,1,0,1,0,0,0,0,1,0,0,0,0,0,0,0,0,0,0,0
21775,D021600640,-23.54014,-46.60517,RUA COIMBRA,nan,2016-02-06 13:00:00,4,Atropelamento,5,0,1,0,0,0,0,0,0,0,0,0,0,0,0,0,0,0,0
21776,D021600641,-23.48082,-46.57186,AV MENDES DA ROCHA,nan,2016-02-28 00:40:00,2,Colisao frontal,2,0,1,0,0,0,0,1,0,0,0,0,0,0,0,0,0,0,0
21777,D021600642,-23.55102,-46.59729,RUA TAQUARI,nan,2016-02-27 22:15:00,2,Colisao traseira,1,0,1,0,0,0,1,0,0,0,0,0,0,0,0,0,0,0,0
21778,D021600643,-23.6494,-46.7767,RUA OZIERI,nan,2016-02-02 18:00:00,4,Atropelamento,1,0,0,0,0,0,0,0,0,0,0,0,0,0,0,0,0,0,1
21779,D021600644,-23.52478,-46.63937,RUA MAMORE,RUA NEWTON PRADO,2016-02-23 22:46:00,2,Colisao lateral,1,0,2,0,0,0,0,0,0,0,0,0,0,0,0,0,0,0,0
21780,D021600645,-23.51633,-46.43671,RUA CARDON,nan,2016-02-12 17:00:00,2,Colisao,1,0,1,0,0,0,0,1,0,0,0,0,0,0,0,0,0,0,0
21781,D021600646,-23.57169,-46.738890000000005,AV CORIFEU DE AZEVEDO MARQUES,RUA VISC DO BOM RETIRO,2016-02-19 12:40:00,2,Colisao traseira,1,0,1,0,0,0,0,1,0,0,0,0,0,0,0,0,0,0,0
21782,D021600647,-23.48299,-46.4919,RUA DR ASSIS RIBEIRO,nan,2016-02-21 03:12:00,2,Choque,1,1,0,0,0,0,0,1,0,0,0,0,0,0,0,0,0,0,0
21783,D021600648,-23.54951,-46.638709999999996,AV VINTE E TRES DE MAIO,nan,2016-02-08 10:47:00,4,Atropelamento,0,1,0,0,0,0,0,0,0,0,0,0,0,0,0,0,0,0,1
21784,D021600649,-23.52885,-46.665209999999995,AV DR ADOLPHO PINTO,RUA TAGIPURU,2016-02-25 10:16:00,4,Atropelamento,1,0,0,1,0,0,0,0,0,0,0,0,0,0,0,0,0,0,0
21785,D021600650,-23.688370000000003,-46.64291,AV ANGELO CRISTIANINI,nan,2016-02-18 15:51:00,4,Atropelamento,1,0,1,0,0,0,0,0,0,0,0,0,0,0,0,0,0,0,0
21786,D021600651,-23.48526,-46.45306,AV JACU-PESSEGO/NOVA TRABALHADORE,nan,2016-02-20 23:31:00,2,Colisao,1,0,1,0,0,0,0,0,0,0,0,0,0,1,0,0,0,0,0
21787,D021600652,-23.566470000000002,-46.465990000000005,AV OSVALDO PUCCI,nan,2016-02-02 08:35:00,2,Choque,2,0,0,0,0,0,0,0,0,0,0,0,0,1,0,0,0,0,0
21788,D021600653,-23.46412,-46.61748,AV TTE JULIO PRADO NEVES,nan,2016-02-05 12:05:00,2,Colisao lateral,1,0,1,0,0,0,0,1,0,0,0,0,0,0,0,0,0,0,0
21789,D021600654,-23.66535,-46.76678,RUA ANTONIO GOMES EIRAS,nan,2016-02-13 18:30:00,4,Atropelamento,1,1,1,0,0,0,0,0,0,0,0,0,0,0,0,0,0,0,0
21790,D021600655,-23.641,-46.58932,VIA ANCHIETA,nan,2016-02-19 06:00:00,4,Atropelamento,0,1,1,0,0,0,0,0,0,0,0,0,0,0,0,0,0,0,0
21791,D021600656,-23.45433,-46.65995,AV FRANCISCO MACHADO DA SILVA,nan,2016-02-07 19:23:00,2,Colisao,1,0,0,0,0,0,0,2,0,0,0,0,0,0,0,0,0,0,0
21792,D021600657,-23.49752,-46.4408,RUA DR JOSE GUILHERME EIRAS,nan,2016-02-05 02:42:00,2,Choque,1,0,1,0,0,0,0,0,0,0,0,0,0,0,0,0,0,0,0
21793,D021600658,-23.54223,-46.62247,RUA ASSUNCAO,nan,2016-02-29 08:57:00,4,Atropelamento,1,0,0,0,0,0,0,0,0,0,0,0,0,1,0,0,0,0,0
21794,D021600659,-23.53132,-46.521440000000005,AV ANTONIO ESTEVAO DE CARVALHO,RUA JOAQUIM MARRA,2016-02-20 12:30:00,2,Colisao,1,0,0,1,0,0,0,1,0,0,0,0,0,0,0,0,0,0,0
21795,D021600660,-23.59965,-46.62588,RUA CORREDEIRA,nan,2016-02-14 07:30:00,2,Colisao frontal,1,0,0,0,0,0,0,1,0,0,1,0,0,0,0,0,0,0,0
21796,D021600661,-23.5501,-46.60426,RUA JOAO CAETANO,RUA HIPODROMO,2016-02-25 23:57:00,2,Colisao,3,0,2,0,0,0,0,0,0,0,0,0,0,0,0,0,0,0,0
21797,D021600662,-23.59467,-46.620540000000005,AV DR RICARDO JAFET,nan,2016-02-15 22:42:00,2,Queda moto/bicicleta,1,0,0,0,0,0,0,1,0,0,0,0,0,0,0,0,0,0,0
21798,D021600663,-23.47415,-46.6533,RUA FRANKLIN DO AMARAL,nan,2016-02-02 18:00:00,2,Colisao,2,0,2,0,0,0,0,0,0,0,0,0,0,0,0,0,0,0,0
21799,D021600664,-23.60535,-46.47101,AV RAGUEB CHOHFI,nan,2016-02-12 19:00:00,4,Atropelamento,0,1,0,0,0,0,0,1,0,0,0,0,0,0,0,0,0,0,0
21800,D021600665,-23.56126,-46.64435,RUA PEDROSO,nan,2016-02-01 16:58:00,2,Colisao,1,0,0,1,0,0,0,1,0,0,0,0,0,0,0,0,0,0,0
21801,D021600666,-23.51501,-46.54241,RUA SEN GODOI,RUA PROF OSCAR MONTE,2016-02-12 16:00:00,2,Colisao,1,0,1,0,0,0,0,1,0,0,0,0,0,0,0,0,0,0,0
21802,D021600667,-23.52788,-46.59822,AV CDSSA ELISABETH DE ROBIANO,nan,2016-02-07 20:00:00,2,Sem Informacao,1,0,2,0,0,0,0,0,0,0,0,0,0,0,0,0,0,0,0
21803,D021600668,-23.5392,-46.471959999999996,AV JOSE PINHEIRO BORGES,nan,2016-02-29 18:00:00,2,Colisao,1,0,1,0,0,0,0,1,0,0,0,0,0,0,0,0,0,0,0
21804,D021600669,-23.584770000000002,-46.57894,AV PROF LUIZ IGNACIO ANHAIA MELLO,nan,2016-02-09 07:30:00,2,Colisao traseira,1,0,0,0,0,0,0,2,0,0,0,0,0,0,0,0,0,0,0
21805,D021600670,-23.62482,-46.67603,AV JORN ROBERTO MARINHO,RUA CD DE PORTO ALEGRE,2016-02-14 00:30:00,4,Atropelamento,1,0,0,0,0,0,0,0,0,0,0,0,0,0,0,0,0,0,1
21806,D021600671,-23.57655,-46.660940000000004,RUA CONS ZACARIAS,RUA JOSE CLEMENTE,2016-02-29 10:56:00,2,Colisao,1,0,0,1,0,0,0,1,0,0,0,0,0,0,0,0,0,0,0
21807,D021600672,-23.56525,-46.6571,AV NOVE DE JULHO,nan,2016-02-04 22:06:00,4,Atropelamento,1,0,0,0,0,0,0,0,0,0,0,0,0,0,0,0,0,0,1
21808,D021600673,-23.65958,-46.77468,ESTRADA DE ITAPECERICA,nan,2016-02-14 18:30:00,2,Colisao,1,0,1,0,0,0,0,1,0,0,0,0,0,0,0,0,0,0,0
21809,D021600674,-23.6368,-46.73697,AV GIOVANNI GRONCHI,nan,2016-02-20 18:44:00,2,Colisao,1,0,1,1,0,0,0,0,0,0,0,0,0,0,0,0,0,0,0
21810,D021600675,-23.58829,-46.606590000000004,RUA CISPLATINA,nan,2016-02-19 12:45:00,4,Atropelamento,1,0,1,0,0,0,0,0,0,0,0,0,0,0,0,0,0,0,0
21811,D021600676,-23.61444,-46.51697,AV PRIMAVERA DE CAIENA,nan,2016-02-27 07:00:00,2,Choque,2,0,1,0,0,0,0,0,0,0,0,0,0,0,0,0,0,0,0
21812,D021600677,-23.597620000000003,-46.68835,AV DOS BANDEIRANTES,nan,2016-02-02 16:00:00,2,Colisao traseira,2,0,2,0,0,0,0,0,0,0,0,0,0,0,0,0,0,0,0
21813,D021600678,-23.70975,-46.65846,RUA DAVIDE PEREZ,nan,2016-02-07 00:26:00,4,Atropelamento,1,0,1,0,0,0,0,0,0,0,0,0,0,0,0,0,0,0,0
21814,D021600679,-23.46884,-46.69447,ESTRADA LAZARO AMANCIO DE BARROS,nan,2016-02-10 19:42:00,2,Colisao,2,0,1,0,0,0,0,1,0,0,0,0,0,0,0,0,0,0,0
21815,D021600680,-23.482020000000002,-46.6305,AV ENG CAETANO ALVARES,nan,2016-02-20 05:02:00,2,Choque,0,2,0,0,0,0,0,1,0,0,0,0,0,0,0,0,0,0,0
21816,D021600681,-23.583920000000003,-46.6423,AV CONS RODRIGUES ALVES,nan,2016-02-16 11:57:00,4,Atropelamento,1,0,1,0,0,0,0,0,0,0,0,0,0,0,0,0,0,0,0
21817,D021600682,-23.84139,-46.73983,ESTRADA ENG MARCILAC,nan,2016-02-13 07:00:00,2,Colisao,1,0,0,1,0,0,0,1,0,0,0,0,0,0,0,0,0,0,0
21818,D021600683,-23.507360000000002,-46.754529999999995,AV CANDIDO PORTINARI,nan,2016-02-12 14:15:00,2,Colisao traseira,1,0,0,0,0,0,0,1,0,0,1,0,0,0,0,0,0,0,0
21819,D021600684,-23.66066,-46.70366,AV WASHINGTON LUIS,nan,2016-02-19 18:22:00,2,Outros,0,1,0,1,0,0,0,1,0,0,0,0,0,0,0,0,0,0,0
21820,D021600685,-23.5889,-46.79367,AV GAL ASDRUBAL DA CUNHA,nan,2016-02-02 14:20:00,2,Queda moto/bicicleta,1,0,0,0,0,0,0,1,0,0,0,0,0,0,0,0,0,0,0
21821,D021600686,-23.61202,-46.48304,AV SAPOPEMBA,nan,2016-02-11 18:13:00,4,Atropelamento,1,0,1,0,0,0,0,0,0,0,0,0,0,0,0,0,0,0,0
21822,D021600687,-23.49715,-46.63775,ALAMEDA AFONSO SCHMIDT,nan,2016-02-13 18:00:00,2,Outros,1,0,0,0,0,0,0,1,0,0,0,0,0,0,0,0,0,0,0
21823,D021600688,-23.48779,-46.39415,RUA CONFLUENCIA DA FORQUILHA,nan,2016-02-25 15:00:00,4,Atropelamento,1,0,0,0,0,0,0,1,0,0,0,0,0,0,0,0,0,0,0
21824,D021600689,-23.545939999999998,-46.43538,AV NAGIB FARAH MALUF,RUA FELIPE LAURI,2016-02-09 10:59:00,4,Atropelamento,1,0,1,0,0,0,0,0,0,0,0,0,0,0,0,0,0,0,0
21825,D021600690,-23.56317,-46.67403,RUA ATLANTICA,nan,2016-02-03 12:00:00,2,Colisao,1,0,1,0,0,0,0,1,0,0,0,0,0,0,0,0,0,0,0
21826,D021600691,-23.45993,-46.67262,AV GAL PENHA BRASIL,nan,2016-02-08 01:15:00,2,Colisao,1,0,2,0,0,0,0,1,0,0,0,0,0,0,0,0,0,0,0
21827,D021600692,-23.58835,-46.67261,RUA DR EDUARDO DE SOUZA ARANHA,nan,2016-02-01 17:24:00,2,Colisao,1,0,1,0,0,0,0,1,0,0,0,0,0,0,0,0,0,0,0
21828,D021600693,-23.55592,-46.51445,RUA FORTUNA DE MINAS,nan,2016-02-10 21:02:00,4,Atropelamento,1,0,1,0,0,0,0,0,0,0,0,0,0,0,0,0,0,0,0
21829,D021600694,-23.65179,-46.72187,AV DR MARIO VILAS BOAS RODRIGUES,nan,2016-02-07 14:30:00,2,Queda moto/bicicleta,1,0,0,0,0,0,0,1,0,0,0,0,0,0,0,0,0,0,0
21830,D021600695,-23.4692,-46.69755,ESTRADA DO SABAO,RUA PROF VIVEIROS RAPOSO,2016-02-04 23:50:00,2,Choque,1,0,1,0,0,0,0,0,0,0,0,0,0,0,0,0,0,0,0
21831,D021600696,-23.64113,-46.72378,AV DAS NACOES UNIDAS,nan,2016-02-26 06:50:00,2,Queda moto/bicicleta,1,0,0,0,0,0,0,1,0,0,0,0,0,0,0,0,0,0,0
21832,D021600697,-23.52649,-46.62455,AV CRUZEIRO DO SUL,nan,2016-02-05 21:40:00,2,Colisao,1,0,0,1,0,0,0,1,0,0,0,0,0,0,0,0,0,0,0
21833,D021600698,-23.54936,-46.63886,AV VINTE E TRES DE MAIO,nan,2016-02-26 11:40:00,2,Colisao traseira,1,0,2,0,0,0,0,0,0,0,0,0,0,0,0,0,0,0,0
21834,D021600699,-23.6573,-46.617259999999995,AV DO CURSINO,AV MIGUEL ESTEFANO,2016-02-19 15:00:00,2,Colisao,2,0,2,0,0,0,0,0,0,0,0,0,0,0,0,0,0,0,0
21835,D021600700,-23.683329999999998,-46.65079,AV YERVANT KISSAJIKIAN,nan,2016-02-29 23:00:00,4,Atropelamento,1,0,0,0,0,0,0,1,0,0,0,0,0,0,0,0,0,0,0
21836,D021600701,-23.46883,-46.63028,AV STA INES,nan,2016-02-02 07:36:00,2,Colisao,1,0,1,0,0,0,0,1,0,0,0,0,0,0,0,0,0,0,0
21837,D021600702,-23.59445,-46.56337,RUA JOAQUIM MOREIRA DIAS,nan,2016-02-13 21:10:00,2,Colisao,1,0,2,0,0,0,0,0,0,0,0,0,0,0,0,0,0,0,0
21838,D021600703,-23.77238,-46.72032,AV SADAMU INOUE,nan,2016-02-18 09:00:00,2,Queda moto/bicicleta,1,0,0,0,0,0,0,1,0,0,0,0,0,0,0,0,0,0,0
21839,D021600704,-23.42315,-46.78949,AV FORTUNATA TADIELLO NATUCCI,nan,2016-02-29 13:30:00,2,Colisao,1,0,1,0,0,0,0,1,0,0,1,0,0,0,0,0,0,0,0
21840,D021600705,-23.60526,-46.712559999999996,AV MORUMBI,nan,2016-02-18 16:50:00,2,Colisao,1,0,1,0,0,0,0,1,0,0,0,0,0,0,0,0,0,0,0
21841,D021600706,-23.68516,-46.64672,RUA DO GUAICURI,nan,2016-02-27 12:00:00,2,Colisao,1,0,1,0,0,0,0,1,0,0,0,0,0,0,0,0,0,0,0
21842,D021600707,-23.693920000000002,-46.657309999999995,ESTRADA DO ALVARENGA,nan,2016-02-21 22:37:00,2,Colisao frontal,1,0,1,0,0,0,0,1,0,0,0,0,0,0,0,0,0,0,0
21843,D021600708,-23.54149,-46.53882,AV ARICANDUVA,nan,2016-02-07 07:30:00,2,Choque,1,0,1,0,0,0,0,0,0,0,0,0,0,0,0,0,0,0,0
21844,D021600709,-23.61538,-46.71335,AV MORUMBI,nan,2016-02-03 19:00:00,2,Choque,1,0,0,0,0,0,0,1,0,0,0,0,0,0,0,0,0,0,0
21845,D021600710,-23.55438,-46.424040000000005,RUA LUIS MATEUS (GUAIANAZES),nan,2016-02-16 16:30:00,2,Colisao,1,0,1,0,0,0,0,1,0,0,0,0,0,0,0,0,0,0,0
21846,D021600711,-23.65103,-46.66973,AV VER JOAO DE LUCA,nan,2016-02-26 06:45:00,2,Colisao,1,0,0,1,0,0,0,1,0,0,0,0,0,0,0,0,0,0,0
21847,D021600712,-23.68017,-46.71354,AV ATLANTICA ANT. ROBERT KENNEDY,nan,2016-02-10 03:40:00,2,Sem Informacao,2,0,0,0,0,0,0,1,0,0,0,0,0,0,0,0,0,0,1
21848,D021600713,-23.636860000000002,-46.696459999999995,AV SANTO AMARO,nan,2016-02-16 22:30:00,2,Queda moto/bicicleta,1,0,0,0,0,0,0,1,0,0,0,0,0,0,0,0,0,0,0
